Nom;latitude;longitude;found;google_maps_url
Vers la Forêt d'Eu à VTT;49.704962;1.4788275;True;https://www.google.com/maps/search/?api=1&query=49.704962%2C1.4788275%28Vers%20la%20For%C3%AAt%20d%27Eu%20%C3%A0%20VTT%29
De Rouen à Forges-les-Eaux;49.4332945;1.10618979;True;https://www.google.com/maps/search/?api=1&query=49.4332945%2C1.10618979%28De%20Rouen%20%C3%A0%20Forges-les-Eaux%29
L'Orée des Près - Gite familial;49.8753083;0.98187158;True;https://www.google.com/maps/search/?api=1&query=49.8753083%2C0.98187158%28L%27Or%C3%A9e%20des%20Pr%C3%A8s%20-%20Gite%20familial%29
Festival de danse : Plein Phare Out;49.49359;0.10097;True;https://www.google.com/maps/search/?api=1&query=49.49359%2C0.10097%28Festival%20de%20danse%20%3A%20Plein%20Phare%20Out%29
Location de vélos - Bureau d'Information Touristique de Jumièges;49.4346353;0.8207907;True;https://www.google.com/maps/search/?api=1&query=49.4346353%2C0.8207907%28Location%20de%20v%C3%A9los%20-%20Bureau%20d%27Information%20Touristique%20de%20Jumi%C3%A8ges%29
[Exposition temporaire] Jacques-Émile Blanche et Celia Saxton Noble : une amitié anglaise;49.8727897;1.0438285;True;https://www.google.com/maps/search/?api=1&query=49.8727897%2C1.0438285%28%5BExposition%20temporaire%5D%20Jacques-%C3%89mile%20Blanche%20et%20Celia%20Saxton%20Noble%20%3A%20une%20amiti%C3%A9%20anglaise%29
De Yainville à Jumièges;49.4522949;0.83200023;True;https://www.google.com/maps/search/?api=1&query=49.4522949%2C0.83200023%28De%20Yainville%20%C3%A0%20Jumi%C3%A8ges%29
Ekla ! Concert live pour livre pop-up animé par Compagnie Turnsteak;49.46313;1.07078;True;https://www.google.com/maps/search/?api=1&query=49.46313%2C1.07078%28Ekla%20%21%20Concert%20live%20pour%20livre%20pop-up%20anim%C3%A9%20par%20Compagnie%20Turnsteak%29
Silleron et Iclon à VTT;49.829923;0.790955;True;https://www.google.com/maps/search/?api=1&query=49.829923%2C0.790955%28Silleron%20et%20Iclon%20%C3%A0%20VTT%29
Animation nature pour les tout-petits;49.554264;0.181841;True;https://www.google.com/maps/search/?api=1&query=49.554264%2C0.181841%28Animation%20nature%20pour%20les%20tout-petits%29
Musée Pierre Corneille - Maison des Champs;49.3896909;1.02115777;True;https://www.google.com/maps/search/?api=1&query=49.3896909%2C1.02115777%28Mus%C3%A9e%20Pierre%20Corneille%20-%20Maison%20des%20Champs%29
Pub Janine - La Grande École;49.4882739;0.1084304;True;https://www.google.com/maps/search/?api=1&query=49.4882739%2C0.1084304%28Pub%20Janine%20-%20La%20Grande%20%C3%89cole%29
Le Donjon de Rouen;49.4464099;1.09444078;True;https://www.google.com/maps/search/?api=1&query=49.4464099%2C1.09444078%28Le%20Donjon%20de%20Rouen%29
Rando Yourte;49.8492521;0.62329263;True;https://www.google.com/maps/search/?api=1&query=49.8492521%2C0.62329263%28Rando%20Yourte%29
Hôtel Les Arcades;49.9267667;1.079382;True;https://www.google.com/maps/search/?api=1&query=49.9267667%2C1.079382%28H%C3%B4tel%20Les%20Arcades%29
Domaine Le Clos des Fontaines;49.4340365;0.8182253;True;https://www.google.com/maps/search/?api=1&query=49.4340365%2C0.8182253%28Domaine%20Le%20Clos%20des%20Fontaines%29
Visit and Run;49.613311;1.545886;True;https://www.google.com/maps/search/?api=1&query=49.613311%2C1.545886%28Visit%20and%20Run%29
Les ateliers créatifs du Croco : Fleurs crépon;49.7176358;1.0993315;True;https://www.google.com/maps/search/?api=1&query=49.7176358%2C1.0993315%28Les%20ateliers%20cr%C3%A9atifs%20du%20Croco%20%3A%20Fleurs%20cr%C3%A9pon%29
Cirque-Théâtre d'Elbeuf;49.2907524;1.01117056;True;https://www.google.com/maps/search/?api=1&query=49.2907524%2C1.01117056%28Cirque-Th%C3%A9%C3%A2tre%20d%27Elbeuf%29
Le Rive Gauche;49.3803992;1.10120474;True;https://www.google.com/maps/search/?api=1&query=49.3803992%2C1.10120474%28Le%20Rive%20Gauche%29
Atelier créatif : Cadre mural végétal;49.5037784;0.0942485;True;https://www.google.com/maps/search/?api=1&query=49.5037784%2C0.0942485%28Atelier%20cr%C3%A9atif%20%3A%20Cadre%20mural%20v%C3%A9g%C3%A9tal%29
La Belle de Beauval;49.721716;1.02033655;True;https://www.google.com/maps/search/?api=1&query=49.721716%2C1.02033655%28La%20Belle%20de%20Beauval%29
Laurie Guerrero - Fresques et team buildings;49.7074851;0.2051629;True;https://www.google.com/maps/search/?api=1&query=49.7074851%2C0.2051629%28Laurie%20Guerrero%20-%20Fresques%20et%20team%20buildings%29
Gîtes de France® - Le Manoir de Tessy;49.8622666;0.99303056;True;https://www.google.com/maps/search/?api=1&query=49.8622666%2C0.99303056%28G%C3%AEtes%20de%20France%C2%AE%20-%20Le%20Manoir%20de%20Tessy%29
Foire Agricole de Bacqueville en Caux;49.7863094;0.99904944;True;https://www.google.com/maps/search/?api=1&query=49.7863094%2C0.99904944%28Foire%20Agricole%20de%20Bacqueville%20en%20Caux%29
La Chaumière;50.0167768;1.5031608;True;https://www.google.com/maps/search/?api=1&query=50.0167768%2C1.5031608%28La%20Chaumi%C3%A8re%29
Fête du goût et de l'artisanat;49.8940342;0.8716147;True;https://www.google.com/maps/search/?api=1&query=49.8940342%2C0.8716147%28F%C3%AAte%20du%20go%C3%BBt%20et%20de%20l%27artisanat%29
Guérin Location;49.9284146;1.08226067;True;https://www.google.com/maps/search/?api=1&query=49.9284146%2C1.08226067%28Gu%C3%A9rin%20Location%29
[Brocante];49.9050978;1.09436641;True;https://www.google.com/maps/search/?api=1&query=49.9050978%2C1.09436641%28%5BBrocante%5D%29
Musée Industriel Vivant Expotec 103 - Moulin Saint-Gilles;49.438279;1.133683;True;https://www.google.com/maps/search/?api=1&query=49.438279%2C1.133683%28Mus%C3%A9e%20Industriel%20Vivant%20Expotec%20103%20-%20Moulin%20Saint-Gilles%29
L'Afloria - Head Spa;49.696481;0.1977289;True;https://www.google.com/maps/search/?api=1&query=49.696481%2C0.1977289%28L%27Afloria%20-%20Head%20Spa%29
[Création immersive] Au jardin des potiniers;49.9061814;1.0940258;True;https://www.google.com/maps/search/?api=1&query=49.9061814%2C1.0940258%28%5BCr%C3%A9ation%20immersive%5D%20Au%20jardin%20des%20potiniers%29
Randonnée apéro My French Rhum;49.8402847;0.9905579;True;https://www.google.com/maps/search/?api=1&query=49.8402847%2C0.9905579%28Randonn%C3%A9e%20ap%C3%A9ro%20My%20French%20Rhum%29
Aux portes d'Yvetot;49.5781528;0.76045731;True;https://www.google.com/maps/search/?api=1&query=49.5781528%2C0.76045731%28Aux%20portes%20d%27Yvetot%29
Atelier de l’Ethnothèque : clayonnage et fascinage;49.4975326;0.7573669;True;https://www.google.com/maps/search/?api=1&query=49.4975326%2C0.7573669%28Atelier%20de%20l%E2%80%99Ethnoth%C3%A8que%20%3A%20clayonnage%20et%20fascinage%29
Musée du Tissage Charles Denis;49.707982;0.7559637;True;https://www.google.com/maps/search/?api=1&query=49.707982%2C0.7559637%28Mus%C3%A9e%20du%20Tissage%20Charles%20Denis%29
Quincamp'Fest;49.51955;1.20316;True;https://www.google.com/maps/search/?api=1&query=49.51955%2C1.20316%28Quincamp%27Fest%29
Valleuse des Grandes-Dalles;49.80617;0.49559;True;https://www.google.com/maps/search/?api=1&query=49.80617%2C0.49559%28Valleuse%20des%20Grandes-Dalles%29
Gîte du Vieux Puits N°2;49.8957643;0.91337417;True;https://www.google.com/maps/search/?api=1&query=49.8957643%2C0.91337417%28G%C3%AEte%20du%20Vieux%20Puits%20N%C2%B02%29
Exposition : Petites voiles;49.4889481;0.1143016;True;https://www.google.com/maps/search/?api=1&query=49.4889481%2C0.1143016%28Exposition%20%3A%20Petites%20voiles%29
La Grillade;49.7593275;0.3626056;True;https://www.google.com/maps/search/?api=1&query=49.7593275%2C0.3626056%28La%20Grillade%29
Visite guidée - Criel-sur-Mer : Circuit du patrimoine architectural;50.017558;1.3158049;True;https://www.google.com/maps/search/?api=1&query=50.017558%2C1.3158049%28Visite%20guid%C3%A9e%20-%20Criel-sur-Mer%20%3A%20Circuit%20du%20patrimoine%20architectural%29
Brocante;49.9895521;1.4214813;True;https://www.google.com/maps/search/?api=1&query=49.9895521%2C1.4214813%28Brocante%29
Peinture sur enduit de chaux frais peinture affresco;49.476084;1.406129;True;https://www.google.com/maps/search/?api=1&query=49.476084%2C1.406129%28Peinture%20sur%20enduit%20de%20chaux%20frais%20peinture%20affresco%29
Jardin des Damville;49.4505853;1.6522555;True;https://www.google.com/maps/search/?api=1&query=49.4505853%2C1.6522555%28Jardin%20des%20Damville%29
Aître Saint-Maclou;49.4398949;1.09947523;True;https://www.google.com/maps/search/?api=1&query=49.4398949%2C1.09947523%28A%C3%AEtre%20Saint-Maclou%29
[Cabaret] Bingo disco;49.9213557;1.0799553;True;https://www.google.com/maps/search/?api=1&query=49.9213557%2C1.0799553%28%5BCabaret%5D%20Bingo%20disco%29
Gîtes de France® - Auleclairlogis;49.5675055;0.30322222;True;https://www.google.com/maps/search/?api=1&query=49.5675055%2C0.30322222%28G%C3%AEtes%20de%20France%C2%AE%20-%20Auleclairlogis%29
réouverture de la Micro Folie d'Yquebeuf;49.5903797;1.2581554;True;https://www.google.com/maps/search/?api=1&query=49.5903797%2C1.2581554%28r%C3%A9ouverture%20de%20la%20Micro%20Folie%20d%27Yquebeuf%29
Fête communale de Canville les deux églises avec marché artisanal/ retraite aux flambeaux avec défilé de majorettes/ feu d'artifice;49.7704359;0.84102999;True;https://www.google.com/maps/search/?api=1&query=49.7704359%2C0.84102999%28F%C3%AAte%20communale%20de%20Canville%20les%20deux%20%C3%A9glises%20avec%20march%C3%A9%20artisanal/%20retraite%20aux%20flambeaux%20avec%20d%C3%A9fil%C3%A9%20de%20majorettes/%20feu%20d%27artifice%29
Séance de yoga;49.8633661;0.711919;True;https://www.google.com/maps/search/?api=1&query=49.8633661%2C0.711919%28S%C3%A9ance%20de%20yoga%29
Stage de chant : Bab Assalam;50.030264;1.386167;True;https://www.google.com/maps/search/?api=1&query=50.030264%2C1.386167%28Stage%20de%20chant%20%3A%20Bab%20Assalam%29
Hôtel Les Initiés;49.4419889;1.09238023;True;https://www.google.com/maps/search/?api=1&query=49.4419889%2C1.09238023%28H%C3%B4tel%20Les%20Initi%C3%A9s%29
Concert : Catherine Lara en trio;49.500977;0.1435657;True;https://www.google.com/maps/search/?api=1&query=49.500977%2C0.1435657%28Concert%20%3A%20Catherine%20Lara%20en%20trio%29
"Atelier théâtre enfants : ""Les gardiens de la nature""";50.017558;1.3158049;True;https://www.google.com/maps/search/?api=1&query=50.017558%2C1.3158049%28Atelier%20th%C3%A9%C3%A2tre%20enfants%20%3A%20%22Les%20gardiens%20de%20la%20nature%22%29
Enduro Truite;49.77878;0.99704;True;https://www.google.com/maps/search/?api=1&query=49.77878%2C0.99704%28Enduro%20Truite%29
Rencontre : Tatiana de Rosnay;49.4915537;0.1087973;True;https://www.google.com/maps/search/?api=1&query=49.4915537%2C0.1087973%28Rencontre%20%3A%20Tatiana%20de%20Rosnay%29
Divernet;49.9254147;1.07568879;True;https://www.google.com/maps/search/?api=1&query=49.9254147%2C1.07568879%28Divernet%29
Hôtel de la Plage;49.904435;0.92268438;True;https://www.google.com/maps/search/?api=1&query=49.904435%2C0.92268438%28H%C3%B4tel%20de%20la%20Plage%29
Tennis Etretat Cap de Caux;49.705421;0.209279;True;https://www.google.com/maps/search/?api=1&query=49.705421%2C0.209279%28Tennis%20Etretat%20Cap%20de%20Caux%29
[Foire à tout];49.8704484;1.0518932;True;https://www.google.com/maps/search/?api=1&query=49.8704484%2C1.0518932%28%5BFoire%20%C3%A0%20tout%5D%29
Yvetot Normandie Tourisme;49.617333;0.754906;True;https://www.google.com/maps/search/?api=1&query=49.617333%2C0.754906%28Yvetot%20Normandie%20Tourisme%29
Lin et l'Autre · Normandie;49.90487;0.992512;True;https://www.google.com/maps/search/?api=1&query=49.90487%2C0.992512%28Lin%20et%20l%27Autre%20%C2%B7%20Normandie%29
La Maison sur la Falaise;50.0573239;1.3760477;True;https://www.google.com/maps/search/?api=1&query=50.0573239%2C1.3760477%28La%20Maison%20sur%20la%20Falaise%29
Sur la Piste des Comtes d'Evreux;49.5016233;0.58281603;True;https://www.google.com/maps/search/?api=1&query=49.5016233%2C0.58281603%28Sur%20la%20Piste%20des%20Comtes%20d%27Evreux%29
Le Cap Fagnet / Fécamp (site classé) : les blockhaus;49.7676284;0.36963948;True;https://www.google.com/maps/search/?api=1&query=49.7676284%2C0.36963948%28Le%20Cap%20Fagnet%20/%20F%C3%A9camp%20%28site%20class%C3%A9%29%20%3A%20les%20blockhaus%29
Plage-Baignade Saint-Valery-en-Caux;49.870122;0.71578823;True;https://www.google.com/maps/search/?api=1&query=49.870122%2C0.71578823%28Plage-Baignade%20Saint-Valery-en-Caux%29
Bienvenue chez M. Goubert;49.7661871;0.3671446;True;https://www.google.com/maps/search/?api=1&query=49.7661871%2C0.3671446%28Bienvenue%20chez%20M.%20Goubert%29
Rouen gourmande;49.4404281;1.093544;True;https://www.google.com/maps/search/?api=1&query=49.4404281%2C1.093544%28Rouen%20gourmande%29
Mon P'tit resto;49.6612881;0.8785383;True;https://www.google.com/maps/search/?api=1&query=49.6612881%2C0.8785383%28Mon%20P%27tit%20resto%29
L'Etoile de mer;49.70695;0.207388;True;https://www.google.com/maps/search/?api=1&query=49.70695%2C0.207388%28L%27Etoile%20de%20mer%29
Pôle de santé libéral et ambulatoire Gournay en Bray;49.4784002;1.7239127;True;https://www.google.com/maps/search/?api=1&query=49.4784002%2C1.7239127%28P%C3%B4le%20de%20sant%C3%A9%20lib%C3%A9ral%20et%20ambulatoire%20Gournay%20en%20Bray%29
App'art 2 et App'art 3;50.0609909;1.3709107;True;https://www.google.com/maps/search/?api=1&query=50.0609909%2C1.3709107%28App%27art%202%20et%20App%27art%203%29
Mme TARLEE Catherine;50.053368;1.392653;True;https://www.google.com/maps/search/?api=1&query=50.053368%2C1.392653%28Mme%20TARLEE%20Catherine%29
La Riv'Yères;50.0183496;1.31436499;True;https://www.google.com/maps/search/?api=1&query=50.0183496%2C1.31436499%28La%20Riv%27Y%C3%A8res%29
Gîtes de France® - Gîte  de la Forêt;49.524671;0.743182;True;https://www.google.com/maps/search/?api=1&query=49.524671%2C0.743182%28G%C3%AEtes%20de%20France%C2%AE%20-%20G%C3%AEte%20%20de%20la%20For%C3%AAt%29
Traversée du Havre en voitures anciennes;49.6402759;0.2225154;True;https://www.google.com/maps/search/?api=1&query=49.6402759%2C0.2225154%28Travers%C3%A9e%20du%20Havre%20en%20voitures%20anciennes%29
Sortie nature : Transhumance;49.6863179;0.1974784;True;https://www.google.com/maps/search/?api=1&query=49.6863179%2C0.1974784%28Sortie%20nature%20%3A%20Transhumance%29
Oh ! Croco : Bricolage Kazoo;49.7176358;1.0993315;True;https://www.google.com/maps/search/?api=1&query=49.7176358%2C1.0993315%28Oh%20%21%20Croco%20%3A%20Bricolage%20Kazoo%29
Plage-Baignade Saint-Aubin-sur-Mer;49.8939924;0.87116199;True;https://www.google.com/maps/search/?api=1&query=49.8939924%2C0.87116199%28Plage-Baignade%20Saint-Aubin-sur-Mer%29
[Sport] Gala de Gymnastique aux Agrès;49.8737296;1.0476766;True;https://www.google.com/maps/search/?api=1&query=49.8737296%2C1.0476766%28%5BSport%5D%20Gala%20de%20Gymnastique%20aux%20Agr%C3%A8s%29
Montigny;49.767051;1.14157399;True;https://www.google.com/maps/search/?api=1&query=49.767051%2C1.14157399%28Montigny%29
Gites beauregard - Gîte Madeleine;49.92935;1.08314;True;https://www.google.com/maps/search/?api=1&query=49.92935%2C1.08314%28Gites%20beauregard%20-%20G%C3%AEte%20Madeleine%29
Maison des forêts Darnétal;49.4379765;1.15881296;True;https://www.google.com/maps/search/?api=1&query=49.4379765%2C1.15881296%28Maison%20des%20for%C3%AAts%20Darn%C3%A9tal%29
Maître Jean;49.8965869;1.65975189;True;https://www.google.com/maps/search/?api=1&query=49.8965869%2C1.65975189%28Ma%C3%AEtre%20Jean%29
Le Camp de César;49.94038;1.1415;True;https://www.google.com/maps/search/?api=1&query=49.94038%2C1.1415%28Le%20Camp%20de%20C%C3%A9sar%29
L'Écrin du Manoir du Perroy;49.55128;0.75454;True;https://www.google.com/maps/search/?api=1&query=49.55128%2C0.75454%28L%27%C3%89crin%20du%20Manoir%20du%20Perroy%29
Gratte-Panche;49.95574;1.42144;True;https://www.google.com/maps/search/?api=1&query=49.95574%2C1.42144%28Gratte-Panche%29
Loto;49.8304275;1.0279592;True;https://www.google.com/maps/search/?api=1&query=49.8304275%2C1.0279592%28Loto%29
Circuit du Courval;49.857974;1.657494;True;https://www.google.com/maps/search/?api=1&query=49.857974%2C1.657494%28Circuit%20du%20Courval%29
[Spectacle] Dansons l'opéra;49.9241256;1.0742735;True;https://www.google.com/maps/search/?api=1&query=49.9241256%2C1.0742735%28%5BSpectacle%5D%20Dansons%20l%27op%C3%A9ra%29
"Lecture-conférence photographique ""la Normandie"" par Gilles Régnier";49.7059107;0.9625195;True;https://www.google.com/maps/search/?api=1&query=49.7059107%2C0.9625195%28Lecture-conf%C3%A9rence%20photographique%20%22la%20Normandie%22%20par%20Gilles%20R%C3%A9gnier%29
Atelier créatif : Cyanotype;49.5037784;0.0942485;True;https://www.google.com/maps/search/?api=1&query=49.5037784%2C0.0942485%28Atelier%20cr%C3%A9atif%20%3A%20Cyanotype%29
Claricello - Fantaisie musicale pour trio extravagant;49.4446789;1.1001902;True;https://www.google.com/maps/search/?api=1&query=49.4446789%2C1.1001902%28Claricello%20-%20Fantaisie%20musicale%20pour%20trio%20extravagant%29
Les Sérénades de Printemps du Vert Galant;49.539626;1.223672;True;https://www.google.com/maps/search/?api=1&query=49.539626%2C1.223672%28Les%20S%C3%A9r%C3%A9nades%20de%20Printemps%20du%20Vert%20Galant%29
Les Racines du Goût;49.6696676;1.4911537;True;https://www.google.com/maps/search/?api=1&query=49.6696676%2C1.4911537%28Les%20Racines%20du%20Go%C3%BBt%29
Aire de Camping-Car de Ry;49.4722942;1.3444567;True;https://www.google.com/maps/search/?api=1&query=49.4722942%2C1.3444567%28Aire%20de%20Camping-Car%20de%20Ry%29
Gîtes de France® - Le Varvannes;49.68125;0.966682;True;https://www.google.com/maps/search/?api=1&query=49.68125%2C0.966682%28G%C3%AEtes%20de%20France%C2%AE%20-%20Le%20Varvannes%29
Site Médiéval de Blainville-Crevon;49.5042744;1.30462106;True;https://www.google.com/maps/search/?api=1&query=49.5042744%2C1.30462106%28Site%20M%C3%A9di%C3%A9val%20de%20Blainville-Crevon%29
Gîtes de France® - La Petite Maison;49.6943805;0.47773889;True;https://www.google.com/maps/search/?api=1&query=49.6943805%2C0.47773889%28G%C3%AEtes%20de%20France%C2%AE%20-%20La%20Petite%20Maison%29
Visite découverte du village du lin;49.8651013;0.88805211;True;https://www.google.com/maps/search/?api=1&query=49.8651013%2C0.88805211%28Visite%20d%C3%A9couverte%20du%20village%20du%20lin%29
Visite guidée du manoir d'Auffay;49.729212;0.6818054;True;https://www.google.com/maps/search/?api=1&query=49.729212%2C0.6818054%28Visite%20guid%C3%A9e%20du%20manoir%20d%27Auffay%29
[Concert] Festival de Musique Ancienne;49.8850082;1.1374462;True;https://www.google.com/maps/search/?api=1&query=49.8850082%2C1.1374462%28%5BConcert%5D%20Festival%20de%20Musique%20Ancienne%29
La Plaine de Sonimare à cheval;49.680784;0.74038208;True;https://www.google.com/maps/search/?api=1&query=49.680784%2C0.74038208%28La%20Plaine%20de%20Sonimare%20%C3%A0%20cheval%29
Table ronde : Arctique - eldorado maritime ou zone à risques ? Mercredi 15;49.4850974;0.11676722;True;https://www.google.com/maps/search/?api=1&query=49.4850974%2C0.11676722%28Table%20ronde%20%3A%20Arctique%20-%20eldorado%20maritime%20ou%20zone%20%C3%A0%20risques%20%3F%20Mercredi%2015%29
Point Plage de Dieppe · Initiations aux loisirs nautiques et location de matériel;49.9266235;1.08033734;True;https://www.google.com/maps/search/?api=1&query=49.9266235%2C1.08033734%28Point%20Plage%20de%20Dieppe%20%C2%B7%20Initiations%20aux%20loisirs%20nautiques%20et%20location%20de%20mat%C3%A9riel%29
Pressoir du Bois Gribout;49.679;0.71682;True;https://www.google.com/maps/search/?api=1&query=49.679%2C0.71682%28Pressoir%20du%20Bois%20Gribout%29
Centre hospitalier du Belvédère;49.4583051;1.0809364;True;https://www.google.com/maps/search/?api=1&query=49.4583051%2C1.0809364%28Centre%20hospitalier%20du%20Belv%C3%A9d%C3%A8re%29
Vacances de printemps créatives avec Manufactory;49.4892907;0.108098;True;https://www.google.com/maps/search/?api=1&query=49.4892907%2C0.108098%28Vacances%20de%20printemps%20cr%C3%A9atives%20avec%20Manufactory%29
Les ateliers théâtre sur scène;50.0547342;1.42771872;True;https://www.google.com/maps/search/?api=1&query=50.0547342%2C1.42771872%28Les%20ateliers%20th%C3%A9%C3%A2tre%20sur%20sc%C3%A8ne%29
La Jolie Fécampoise;49.75534;0.37585;True;https://www.google.com/maps/search/?api=1&query=49.75534%2C0.37585%28La%20Jolie%20F%C3%A9campoise%29
Défilé Charlott';49.6961637;1.4921802;True;https://www.google.com/maps/search/?api=1&query=49.6961637%2C1.4921802%28D%C3%A9fil%C3%A9%20Charlott%27%29
Visite de Buchy;49.5856526;1.3629912;True;https://www.google.com/maps/search/?api=1&query=49.5856526%2C1.3629912%28Visite%20de%20Buchy%29
Gîte L'ancienne Forge;49.5686186;0.7236844;True;https://www.google.com/maps/search/?api=1&query=49.5686186%2C0.7236844%28G%C3%AEte%20L%27ancienne%20Forge%29
Klic-klac c'est dans la boîte;49.51584;0.66302;True;https://www.google.com/maps/search/?api=1&query=49.51584%2C0.66302%28Klic-klac%20c%27est%20dans%20la%20bo%C3%AEte%29
Salon du livre;50.0627409;1.3688819;True;https://www.google.com/maps/search/?api=1&query=50.0627409%2C1.3688819%28Salon%20du%20livre%29
Scène ouverte fête de la musique;49.7176358;1.0993315;True;https://www.google.com/maps/search/?api=1&query=49.7176358%2C1.0993315%28Sc%C3%A8ne%20ouverte%20f%C3%AAte%20de%20la%20musique%29
Vilaterre;49.836384;0.98260234;True;https://www.google.com/maps/search/?api=1&query=49.836384%2C0.98260234%28Vilaterre%29
Hôtel B&B Yvetot;49.61686;0.77571;True;https://www.google.com/maps/search/?api=1&query=49.61686%2C0.77571%28H%C3%B4tel%20B%26B%20Yvetot%29
Gare de Longroy-Gamaches;49.98221;1.55322;True;https://www.google.com/maps/search/?api=1&query=49.98221%2C1.55322%28Gare%20de%20Longroy-Gamaches%29
La Ferme du Pays;49.5258378;1.02012307;True;https://www.google.com/maps/search/?api=1&query=49.5258378%2C1.02012307%28La%20Ferme%20du%20Pays%29
Monroe;49.44015;1.09517;True;https://www.google.com/maps/search/?api=1&query=49.44015%2C1.09517%28Monroe%29
Visite Atelier Roger Douville;49.771;0.84206;True;https://www.google.com/maps/search/?api=1&query=49.771%2C0.84206%28Visite%20Atelier%20Roger%20Douville%29
[Festival J.E.Di];49.922838;1.081005;True;https://www.google.com/maps/search/?api=1&query=49.922838%2C1.081005%28%5BFestival%20J.E.Di%5D%29
"Exposition artistique ""Dramagraphie""";49.8503116;0.6233199;True;https://www.google.com/maps/search/?api=1&query=49.8503116%2C0.6233199%28Exposition%20artistique%20%22Dramagraphie%22%29
Le Bièvredent;49.5299197;1.52563618;True;https://www.google.com/maps/search/?api=1&query=49.5299197%2C1.52563618%28Le%20Bi%C3%A8vredent%29
Concert : Benjamin Biolay;49.4881755;0.1300304;True;https://www.google.com/maps/search/?api=1&query=49.4881755%2C0.1300304%28Concert%20%3A%20Benjamin%20Biolay%29
Meublé 54 LEVILLAIN;50.06029;1.372715;True;https://www.google.com/maps/search/?api=1&query=50.06029%2C1.372715%28Meubl%C3%A9%2054%20LEVILLAIN%29
Un après-midi à la ferme;49.767861;0.733197;True;https://www.google.com/maps/search/?api=1&query=49.767861%2C0.733197%28Un%20apr%C3%A8s-midi%20%C3%A0%20la%20ferme%29
All Suites Appart Hôtel Le Havre - GESTLEHAVRE;49.4884321;0.12561885;True;https://www.google.com/maps/search/?api=1&query=49.4884321%2C0.12561885%28All%20Suites%20Appart%20H%C3%B4tel%20Le%20Havre%20-%20GESTLEHAVRE%29
Gîte du petit pressoir;50.005794;1.436099;True;https://www.google.com/maps/search/?api=1&query=50.005794%2C1.436099%28G%C3%AEte%20du%20petit%20pressoir%29
La Longère;49.4870855;1.71383796;True;https://www.google.com/maps/search/?api=1&query=49.4870855%2C1.71383796%28La%20Long%C3%A8re%29
Fête de la musique à Cideville;49.6155179;0.894361;True;https://www.google.com/maps/search/?api=1&query=49.6155179%2C0.894361%28F%C3%AAte%20de%20la%20musique%20%C3%A0%20Cideville%29
Marais de Longueil;49.8833149;0.9552132;True;https://www.google.com/maps/search/?api=1&query=49.8833149%2C0.9552132%28Marais%20de%20Longueil%29
Écomusée Pays de Caux - Traditions du Lin;49.6970888;0.84017514;True;https://www.google.com/maps/search/?api=1&query=49.6970888%2C0.84017514%28%C3%89comus%C3%A9e%20Pays%20de%20Caux%20-%20Traditions%20du%20Lin%29
Le Fournil du Lin;49.72062;0.78141;True;https://www.google.com/maps/search/?api=1&query=49.72062%2C0.78141%28Le%20Fournil%20du%20Lin%29
Visite théâtralisée : Perret la nuit...;49.4917758;0.1075554;True;https://www.google.com/maps/search/?api=1&query=49.4917758%2C0.1075554%28Visite%20th%C3%A9%C3%A2tralis%C3%A9e%20%3A%20Perret%20la%20nuit...%29
Hôtel de Bourgtheroulde ***** - Autograph Collection;49.442099;1.08830899;True;https://www.google.com/maps/search/?api=1&query=49.442099%2C1.08830899%28H%C3%B4tel%20de%20Bourgtheroulde%20%2A%2A%2A%2A%2A%20-%20Autograph%20Collection%29
Jardin du Manoir de l'Aumônerie;49.4343085;0.96751228;True;https://www.google.com/maps/search/?api=1&query=49.4343085%2C0.96751228%28Jardin%20du%20Manoir%20de%20l%27Aum%C3%B4nerie%29
[Animations] Village des sports;49.9303236;1.08067914;True;https://www.google.com/maps/search/?api=1&query=49.9303236%2C1.08067914%28%5BAnimations%5D%20Village%20des%20sports%29
L'insolit O Verger;49.486708;1.419909;True;https://www.google.com/maps/search/?api=1&query=49.486708%2C1.419909%28L%27insolit%20O%20Verger%29
Aire de pique-nique d'Héronchelles;49.5288218;1.383356;True;https://www.google.com/maps/search/?api=1&query=49.5288218%2C1.383356%28Aire%20de%20pique-nique%20d%27H%C3%A9ronchelles%29
Circuit du Tournant;49.957;1.22251;True;https://www.google.com/maps/search/?api=1&query=49.957%2C1.22251%28Circuit%20du%20Tournant%29
Gîte Côté Mer;49.898202;0.9164395;True;https://www.google.com/maps/search/?api=1&query=49.898202%2C0.9164395%28G%C3%AEte%20C%C3%B4t%C3%A9%20Mer%29
Mon premier ciné concert;49.5758845;0.4698193;True;https://www.google.com/maps/search/?api=1&query=49.5758845%2C0.4698193%28Mon%20premier%20cin%C3%A9%20concert%29
La croix de pierre;49.5714005;0.53613915;True;https://www.google.com/maps/search/?api=1&query=49.5714005%2C0.53613915%28La%20croix%20de%20pierre%29
Le Cotin des Cordiers;50.0607;1.37014;True;https://www.google.com/maps/search/?api=1&query=50.0607%2C1.37014%28Le%20Cotin%20des%20Cordiers%29
[Concours de pétanque] La Boule Offranvillaise;49.8691573;1.0491045;True;https://www.google.com/maps/search/?api=1&query=49.8691573%2C1.0491045%28%5BConcours%20de%20p%C3%A9tanque%5D%20La%20Boule%20Offranvillaise%29
Aux Anciennes Halles;49.5846768;1.3592135;True;https://www.google.com/maps/search/?api=1&query=49.5846768%2C1.3592135%28Aux%20Anciennes%20Halles%29
La Cavée aux Coqs à VTT;49.5520056;0.79333693;True;https://www.google.com/maps/search/?api=1&query=49.5520056%2C0.79333693%28La%20Cav%C3%A9e%20aux%20Coqs%20%C3%A0%20VTT%29
La Mare aux Daims;49.73277;1.57921459;True;https://www.google.com/maps/search/?api=1&query=49.73277%2C1.57921459%28La%20Mare%20aux%20Daims%29
"Marché à la ferme ""Les Prés d'Artemare""";49.7680433;0.7305165;True;https://www.google.com/maps/search/?api=1&query=49.7680433%2C0.7305165%28March%C3%A9%20%C3%A0%20la%20ferme%20%22Les%20Pr%C3%A9s%20d%27Artemare%22%29
L'Atelier - Médiathèque Michel Bussi;49.48386;1.71997;True;https://www.google.com/maps/search/?api=1&query=49.48386%2C1.71997%28L%27Atelier%20-%20M%C3%A9diath%C3%A8que%20Michel%20Bussi%29
Arbres remarquables de l'abbaye du Valasse;49.5367336;0.50552181;True;https://www.google.com/maps/search/?api=1&query=49.5367336%2C0.50552181%28Arbres%20remarquables%20de%20l%27abbaye%20du%20Valasse%29
[Villa Augustine] Appartement Célestine;49.92189;1.07615;True;https://www.google.com/maps/search/?api=1&query=49.92189%2C1.07615%28%5BVilla%20Augustine%5D%20Appartement%20C%C3%A9lestine%29
L'Yvette;50.00955;1.39342;True;https://www.google.com/maps/search/?api=1&query=50.00955%2C1.39342%28L%27Yvette%29
Soirée Africaine;49.6017176;1.115314;True;https://www.google.com/maps/search/?api=1&query=49.6017176%2C1.115314%28Soir%C3%A9e%20Africaine%29
Maison Legout;49.5246255;0.72661029;True;https://www.google.com/maps/search/?api=1&query=49.5246255%2C0.72661029%28Maison%20Legout%29
Rétro;49.7071373;0.2034254;True;https://www.google.com/maps/search/?api=1&query=49.7071373%2C0.2034254%28R%C3%A9tro%29
Les Terres de Jim 2025;49.56773;1.29836;True;https://www.google.com/maps/search/?api=1&query=49.56773%2C1.29836%28Les%20Terres%20de%20Jim%202025%29
AST SUN JET PASSION;50.05908;1.38263;True;https://www.google.com/maps/search/?api=1&query=50.05908%2C1.38263%28AST%20SUN%20JET%20PASSION%29
Bar Zoo;49.7626831;0.3728202;True;https://www.google.com/maps/search/?api=1&query=49.7626831%2C0.3728202%28Bar%20Zoo%29
Musée du Cidre et des Métiers Traditionnels;49.6954226;1.2450803;True;https://www.google.com/maps/search/?api=1&query=49.6954226%2C1.2450803%28Mus%C3%A9e%20du%20Cidre%20et%20des%20M%C3%A9tiers%20Traditionnels%29
La Maison Bleue;49.874646;0.797782;True;https://www.google.com/maps/search/?api=1&query=49.874646%2C0.797782%28La%20Maison%20Bleue%29
Gite du Point du Jour;49.552236;1.491686;True;https://www.google.com/maps/search/?api=1&query=49.552236%2C1.491686%28Gite%20du%20Point%20du%20Jour%29
Chez Suzy et Gérard;50.0569009;1.42226709;True;https://www.google.com/maps/search/?api=1&query=50.0569009%2C1.42226709%28Chez%20Suzy%20et%20G%C3%A9rard%29
Visite guidée couplée ville/théâtre romain;49.518141;0.5363113;True;https://www.google.com/maps/search/?api=1&query=49.518141%2C0.5363113%28Visite%20guid%C3%A9e%20coupl%C3%A9e%20ville/th%C3%A9%C3%A2tre%20romain%29
Suites du château de Roumare;49.51595;0.96661;True;https://www.google.com/maps/search/?api=1&query=49.51595%2C0.96661%28Suites%20du%20ch%C3%A2teau%20de%20Roumare%29
[Visite guidée] Puys : le charme discret d’une station balnéaire;49.9379701;1.1095595;True;https://www.google.com/maps/search/?api=1&query=49.9379701%2C1.1095595%28%5BVisite%20guid%C3%A9e%5D%20Puys%20%3A%20le%20charme%20discret%20d%E2%80%99une%20station%20baln%C3%A9aire%29
Aire de stationnement et de service d'Ecretteville-les-Baons;49.625327;0.685953;True;https://www.google.com/maps/search/?api=1&query=49.625327%2C0.685953%28Aire%20de%20stationnement%20et%20de%20service%20d%27Ecretteville-les-Baons%29
Boucle VTT - De la Saâne à la Vienne;49.8139385;0.95187337;True;https://www.google.com/maps/search/?api=1&query=49.8139385%2C0.95187337%28Boucle%20VTT%20-%20De%20la%20Sa%C3%A2ne%20%C3%A0%20la%20Vienne%29
[reporté] Défilé de vieux véhicules de sapeurs-pompiers;49.556023;1.104021;True;https://www.google.com/maps/search/?api=1&query=49.556023%2C1.104021%28%5Breport%C3%A9%5D%20D%C3%A9fil%C3%A9%20de%20vieux%20v%C3%A9hicules%20de%20sapeurs-pompiers%29
Randonnée à la Hallotière;49.517946;1.474694;True;https://www.google.com/maps/search/?api=1&query=49.517946%2C1.474694%28Randonn%C3%A9e%20%C3%A0%20la%20Halloti%C3%A8re%29
Foire à tout au stade d'Etoutteville;49.6753453;0.7908157;True;https://www.google.com/maps/search/?api=1&query=49.6753453%2C0.7908157%28Foire%20%C3%A0%20tout%20au%20stade%20d%27Etoutteville%29
Atelier : Broderie sur papier;49.4892907;0.108098;True;https://www.google.com/maps/search/?api=1&query=49.4892907%2C0.108098%28Atelier%20%3A%20Broderie%20sur%20papier%29
Escalade - Séance multisports;49.7929493;0.63876033;True;https://www.google.com/maps/search/?api=1&query=49.7929493%2C0.63876033%28Escalade%20-%20S%C3%A9ance%20multisports%29
La Ferme de La Boudinière;49.518999;0.8065679;True;https://www.google.com/maps/search/?api=1&query=49.518999%2C0.8065679%28La%20Ferme%20de%20La%20Boudini%C3%A8re%29
Journées Européennes du Patrimoine 2026;49.9275109;1.0878759;True;https://www.google.com/maps/search/?api=1&query=49.9275109%2C1.0878759%28Journ%C3%A9es%20Europ%C3%A9ennes%20du%20Patrimoine%202026%29
Dans les pas de Laura · Visites guidées;49.92651;1.07998;True;https://www.google.com/maps/search/?api=1&query=49.92651%2C1.07998%28Dans%20les%20pas%20de%20Laura%20%C2%B7%20Visites%20guid%C3%A9es%29
Les terrasses du jeudi;49.44014;1.0894;True;https://www.google.com/maps/search/?api=1&query=49.44014%2C1.0894%28Les%20terrasses%20du%20jeudi%29
Le Bois de la Brétèque;49.6155;0.82695;True;https://www.google.com/maps/search/?api=1&query=49.6155%2C0.82695%28Le%20Bois%20de%20la%20Br%C3%A9t%C3%A8que%29
Château de Maltot - Le Nichoir;49.6325948;1.02066184;True;https://www.google.com/maps/search/?api=1&query=49.6325948%2C1.02066184%28Ch%C3%A2teau%20de%20Maltot%20-%20Le%20Nichoir%29
Boutique de la distillerie de la Seine - spiritueux Made In LH;49.47929;0.15022;True;https://www.google.com/maps/search/?api=1&query=49.47929%2C0.15022%28Boutique%20de%20la%20distillerie%20de%20la%20Seine%20-%20spiritueux%20Made%20In%20LH%29
La Mercerie de Denise;49.8656478;0.88637472;True;https://www.google.com/maps/search/?api=1&query=49.8656478%2C0.88637472%28La%20Mercerie%20de%20Denise%29
Le Clos Vildor;49.9868497;1.3612152;True;https://www.google.com/maps/search/?api=1&query=49.9868497%2C1.3612152%28Le%20Clos%20Vildor%29
La Réserve en Seine;49.48957;0.09567;True;https://www.google.com/maps/search/?api=1&query=49.48957%2C0.09567%28La%20R%C3%A9serve%20en%20Seine%29
Chasse aux trésors Oiseaux;49.5982617;1.1102176;True;https://www.google.com/maps/search/?api=1&query=49.5982617%2C1.1102176%28Chasse%20aux%20tr%C3%A9sors%20Oiseaux%29
Centre Hospitalier d'Eu;50.0505989;1.4224728;True;https://www.google.com/maps/search/?api=1&query=50.0505989%2C1.4224728%28Centre%20Hospitalier%20d%27Eu%29
Chez Simon;49.740252;0.35800201;True;https://www.google.com/maps/search/?api=1&query=49.740252%2C0.35800201%28Chez%20Simon%29
Des Glycines à la Porte Noire;49.7919239;1.10938397;True;https://www.google.com/maps/search/?api=1&query=49.7919239%2C1.10938397%28Des%20Glycines%20%C3%A0%20la%20Porte%20Noire%29
Linstantiny;49.634958;0.534817;True;https://www.google.com/maps/search/?api=1&query=49.634958%2C0.534817%28Linstantiny%29
"Les Gîtes du Manoir du Perroy ""Le Four à Pain""";49.551276;0.754538;True;https://www.google.com/maps/search/?api=1&query=49.551276%2C0.754538%28Les%20G%C3%AEtes%20du%20Manoir%20du%20Perroy%20%22Le%20Four%20%C3%A0%20Pain%22%29
Hissez les voiles à Dieppe !;49.9266079;1.08033599;True;https://www.google.com/maps/search/?api=1&query=49.9266079%2C1.08033599%28Hissez%20les%20voiles%20%C3%A0%20Dieppe%20%21%29
Bleu Horizon;49.9043627;0.92432642;True;https://www.google.com/maps/search/?api=1&query=49.9043627%2C0.92432642%28Bleu%20Horizon%29
Foire à tout/ Loterie;49.67758;1.10802;True;https://www.google.com/maps/search/?api=1&query=49.67758%2C1.10802%28Foire%20%C3%A0%20tout/%20Loterie%29
Mme CONSEIL Sylvia;50.0540252;1.3663099;True;https://www.google.com/maps/search/?api=1&query=50.0540252%2C1.3663099%28Mme%20CONSEIL%20Sylvia%29
Visite du Tissage du Ronchay;49.82695;0.92249;True;https://www.google.com/maps/search/?api=1&query=49.82695%2C0.92249%28Visite%20du%20Tissage%20du%20Ronchay%29
Le Gîte la Pommeraie;49.83851;1.14222;True;https://www.google.com/maps/search/?api=1&query=49.83851%2C1.14222%28Le%20G%C3%AEte%20la%20Pommeraie%29
Marché traditionnel;49.869006;0.713904;True;https://www.google.com/maps/search/?api=1&query=49.869006%2C0.713904%28March%C3%A9%20traditionnel%29
La Forêt de Ménonval;49.7845605;1.45609052;True;https://www.google.com/maps/search/?api=1&query=49.7845605%2C1.45609052%28La%20For%C3%AAt%20de%20M%C3%A9nonval%29
Chez Mme ROBILLARD Marie-Line;49.85456;0.7933064;True;https://www.google.com/maps/search/?api=1&query=49.85456%2C0.7933064%28Chez%20Mme%20ROBILLARD%20Marie-Line%29
GUIHOME;49.6153314;1.545216;True;https://www.google.com/maps/search/?api=1&query=49.6153314%2C1.545216%28GUIHOME%29
Mess My Mind 2026;49.5039576;0.1207302;True;https://www.google.com/maps/search/?api=1&query=49.5039576%2C0.1207302%28Mess%20My%20Mind%202026%29
La Quesnoye;49.827011;1.568073;True;https://www.google.com/maps/search/?api=1&query=49.827011%2C1.568073%28La%20Quesnoye%29
Pablo Mira;49.6153314;1.545216;True;https://www.google.com/maps/search/?api=1&query=49.6153314%2C1.545216%28Pablo%20Mira%29
Humour : Haroun - Bonjour quand même;49.4881755;0.1300304;True;https://www.google.com/maps/search/?api=1&query=49.4881755%2C0.1300304%28Humour%20%3A%20Haroun%20-%20Bonjour%20quand%20m%C3%AAme%29
Aéroclub de l'Estuaire de la Seine;49.5439914;0.35470134;True;https://www.google.com/maps/search/?api=1&query=49.5439914%2C0.35470134%28A%C3%A9roclub%20de%20l%27Estuaire%20de%20la%20Seine%29
"Promenade ""Fabrique ton herbier""";49.4755549;1.5873906;True;https://www.google.com/maps/search/?api=1&query=49.4755549%2C1.5873906%28Promenade%20%22Fabrique%20ton%20herbier%22%29
Les bulles de Malylou;49.52647;0.76115;True;https://www.google.com/maps/search/?api=1&query=49.52647%2C0.76115%28Les%20bulles%20de%20Malylou%29
Escape Game Étretat - Panda Motion;49.7030055;0.2115548;True;https://www.google.com/maps/search/?api=1&query=49.7030055%2C0.2115548%28Escape%20Game%20%C3%89tretat%20-%20Panda%20Motion%29
Château du Val d'Arques;49.563559;0.449732;True;https://www.google.com/maps/search/?api=1&query=49.563559%2C0.449732%28Ch%C3%A2teau%20du%20Val%20d%27Arques%29
Gîte Le Presbytère;49.5975259;0.842321;True;https://www.google.com/maps/search/?api=1&query=49.5975259%2C0.842321%28G%C3%AEte%20Le%20Presbyt%C3%A8re%29
[Musique] On laisse les clés à Hakim Molina;49.9197341;1.08554463;True;https://www.google.com/maps/search/?api=1&query=49.9197341%2C1.08554463%28%5BMusique%5D%20On%20laisse%20les%20cl%C3%A9s%20%C3%A0%20Hakim%20Molina%29
Bodega Le Havre;49.4901913;0.1053264;True;https://www.google.com/maps/search/?api=1&query=49.4901913%2C0.1053264%28Bodega%20Le%20Havre%29
Marché hebdomadaire de Forges-les-Eaux;49.6133371;1.5453536;True;https://www.google.com/maps/search/?api=1&query=49.6133371%2C1.5453536%28March%C3%A9%20hebdomadaire%20de%20Forges-les-Eaux%29
La Véloroute des Thermes;49.44014;1.0894;True;https://www.google.com/maps/search/?api=1&query=49.44014%2C1.0894%28La%20V%C3%A9loroute%20des%20Thermes%29
Gomare;49.956621;1.473188;True;https://www.google.com/maps/search/?api=1&query=49.956621%2C1.473188%28Gomare%29
La Chevrette;49.61288;1.54602;True;https://www.google.com/maps/search/?api=1&query=49.61288%2C1.54602%28La%20Chevrette%29
Ferme des Templiers;49.47384;1.50636;True;https://www.google.com/maps/search/?api=1&query=49.47384%2C1.50636%28Ferme%20des%20Templiers%29
Museoh oh oh Seine, le Noël des enfants au musée;49.52469;0.72148;True;https://www.google.com/maps/search/?api=1&query=49.52469%2C0.72148%28Museoh%20oh%20oh%20Seine%2C%20le%20No%C3%ABl%20des%20enfants%20au%20mus%C3%A9e%29
Nichoir à chauve-souris et abri pour hérisson;49.6178933;1.5215934;True;https://www.google.com/maps/search/?api=1&query=49.6178933%2C1.5215934%28Nichoir%20%C3%A0%20chauve-souris%20et%20abri%20pour%20h%C3%A9risson%29
Le Nid Cauchois;49.553125;0.79055;True;https://www.google.com/maps/search/?api=1&query=49.553125%2C0.79055%28Le%20Nid%20Cauchois%29
Gare de Bolbec;49.59139;0.48472;True;https://www.google.com/maps/search/?api=1&query=49.59139%2C0.48472%28Gare%20de%20Bolbec%29
Fête foraine, vide grenier et feu d'artifice à Motteville;49.6347169;0.85575799;True;https://www.google.com/maps/search/?api=1&query=49.6347169%2C0.85575799%28F%C3%AAte%20foraine%2C%20vide%20grenier%20et%20feu%20d%27artifice%20%C3%A0%20Motteville%29
Trail des Z'oranges pressées;49.54724;1.0753;True;https://www.google.com/maps/search/?api=1&query=49.54724%2C1.0753%28Trail%20des%20Z%27oranges%20press%C3%A9es%29
Forges-en-Courses;49.613311;1.545886;True;https://www.google.com/maps/search/?api=1&query=49.613311%2C1.545886%28Forges-en-Courses%29
Les clos masures;49.65345;0.53664;True;https://www.google.com/maps/search/?api=1&query=49.65345%2C0.53664%28Les%20clos%20masures%29
Découverte du verre soufflé à la canne;49.9294121;1.6378564;True;https://www.google.com/maps/search/?api=1&query=49.9294121%2C1.6378564%28D%C3%A9couverte%20du%20verre%20souffl%C3%A9%20%C3%A0%20la%20canne%29
Serres des Jardins Suspendus;49.5032165;0.09450077;True;https://www.google.com/maps/search/?api=1&query=49.5032165%2C0.09450077%28Serres%20des%20Jardins%20Suspendus%29
Une ville, des quartiers : Le quartier Saint-Sever;49.4304891;1.0850508;True;https://www.google.com/maps/search/?api=1&query=49.4304891%2C1.0850508%28Une%20ville%2C%20des%20quartiers%20%3A%20Le%20quartier%20Saint-Sever%29
Visite guidée - Eu : Mille ans d'Histoire;50.0485671;1.41908166;True;https://www.google.com/maps/search/?api=1&query=50.0485671%2C1.41908166%28Visite%20guid%C3%A9e%20-%20Eu%20%3A%20Mille%20ans%20d%27Histoire%29
Gîte communal de Gaillefontaine;49.6540333;1.615525;True;https://www.google.com/maps/search/?api=1&query=49.6540333%2C1.615525%28G%C3%AEte%20communal%20de%20Gaillefontaine%29
Le clos d'Estain;49.58936;0.76036;True;https://www.google.com/maps/search/?api=1&query=49.58936%2C0.76036%28Le%20clos%20d%27Estain%29
La Sellerie;49.9862076;1.3593233;True;https://www.google.com/maps/search/?api=1&query=49.9862076%2C1.3593233%28La%20Sellerie%29
Mme LAVAL-ANDRE Chloé;50.0609384;1.3686737;True;https://www.google.com/maps/search/?api=1&query=50.0609384%2C1.3686737%28Mme%20LAVAL-ANDRE%20Chlo%C3%A9%29
Visite de territoire : Passe à poissons de la Risle;49.52469;0.72148;True;https://www.google.com/maps/search/?api=1&query=49.52469%2C0.72148%28Visite%20de%20territoire%20%3A%20Passe%20%C3%A0%20poissons%20de%20la%20Risle%29
Plage -Baignade et pêche à pied Quiberville-sur-Mer;49.9053628;0.92466065;True;https://www.google.com/maps/search/?api=1&query=49.9053628%2C0.92466065%28Plage%20-Baignade%20et%20p%C3%AAche%20%C3%A0%20pied%20Quiberville-sur-Mer%29
Cap Fécamp à Bâbord;49.7584662;0.3646078;True;https://www.google.com/maps/search/?api=1&query=49.7584662%2C0.3646078%28Cap%20F%C3%A9camp%20%C3%A0%20B%C3%A2bord%29
Bien-être au musée : Visite inspirée;49.5033248;0.1650465;True;https://www.google.com/maps/search/?api=1&query=49.5033248%2C0.1650465%28Bien-%C3%AAtre%20au%20mus%C3%A9e%20%3A%20Visite%20inspir%C3%A9e%29
La Roulée;49.5414803;1.51513459;True;https://www.google.com/maps/search/?api=1&query=49.5414803%2C1.51513459%28La%20Roul%C3%A9e%29
Visite guidée des jardins - Rendez-vous aux Jardins 2026;49.5646689;0.4431552;True;https://www.google.com/maps/search/?api=1&query=49.5646689%2C0.4431552%28Visite%20guid%C3%A9e%20des%20jardins%20-%20Rendez-vous%20aux%20Jardins%202026%29
Ferme Aquaponique de l'Abbaye;49.67516;1.1230088;True;https://www.google.com/maps/search/?api=1&query=49.67516%2C1.1230088%28Ferme%20Aquaponique%20de%20l%27Abbaye%29
Café des sports;49.6961055;0.6956539;True;https://www.google.com/maps/search/?api=1&query=49.6961055%2C0.6956539%28Caf%C3%A9%20des%20sports%29
Atelier Musée du Textile;49.5770313;0.49214811;True;https://www.google.com/maps/search/?api=1&query=49.5770313%2C0.49214811%28Atelier%20Mus%C3%A9e%20du%20Textile%29
La  Ferme des Falaises;49.6411553;0.1917055;True;https://www.google.com/maps/search/?api=1&query=49.6411553%2C0.1917055%28La%20%20Ferme%20des%20Falaises%29
Le Chemin Vert du Petit Caux à VTT;50.0448685;1.42624162;True;https://www.google.com/maps/search/?api=1&query=50.0448685%2C1.42624162%28Le%20Chemin%20Vert%20du%20Petit%20Caux%20%C3%A0%20VTT%29
J'extériorise mes maux par le modelage de l'Argile;49.7661779;0.89680299;True;https://www.google.com/maps/search/?api=1&query=49.7661779%2C0.89680299%28J%27ext%C3%A9riorise%20mes%20maux%20par%20le%20modelage%20de%20l%27Argile%29
Visite famille : Du rire aux larmes;49.5033248;0.1650465;True;https://www.google.com/maps/search/?api=1&query=49.5033248%2C0.1650465%28Visite%20famille%20%3A%20Du%20rire%20aux%20larmes%29
Bistrot by lac de Caniel;49.801267;0.6315422;True;https://www.google.com/maps/search/?api=1&query=49.801267%2C0.6315422%28Bistrot%20by%20lac%20de%20Caniel%29
Exposition : Monet au Havre;49.4849943;0.102668;True;https://www.google.com/maps/search/?api=1&query=49.4849943%2C0.102668%28Exposition%20%3A%20Monet%20au%20Havre%29
Le Jardin du Roi de Rome à cheval;49.709884;1.304758;True;https://www.google.com/maps/search/?api=1&query=49.709884%2C1.304758%28Le%20Jardin%20du%20Roi%20de%20Rome%20%C3%A0%20cheval%29
L'heure bleue;49.70693;0.20572;True;https://www.google.com/maps/search/?api=1&query=49.70693%2C0.20572%28L%27heure%20bleue%29
Jardin des Fontaines;50.049716;1.418578;True;https://www.google.com/maps/search/?api=1&query=50.049716%2C1.418578%28Jardin%20des%20Fontaines%29
Escale Quai George V;49.4910054;0.1136129;True;https://www.google.com/maps/search/?api=1&query=49.4910054%2C0.1136129%28Escale%20Quai%20George%20V%29
Spectacle : Thomas Marty;49.6154232;1.5436649;True;https://www.google.com/maps/search/?api=1&query=49.6154232%2C1.5436649%28Spectacle%20%3A%20Thomas%20Marty%29
Cours de navigation à la voile ados / adultes - Stage de Voile Dériveurs - Centre Nautique du Tréport;50.062666;1.378418;True;https://www.google.com/maps/search/?api=1&query=50.062666%2C1.378418%28Cours%20de%20navigation%20%C3%A0%20la%20voile%20ados%20/%20adultes%20-%20Stage%20de%20Voile%20D%C3%A9riveurs%20-%20Centre%20Nautique%20du%20Tr%C3%A9port%29
Patinoire Municipale;49.507282;0.13321774;True;https://www.google.com/maps/search/?api=1&query=49.507282%2C0.13321774%28Patinoire%20Municipale%29
Hôtel Rouen Alba;49.4384934;1.09439032;True;https://www.google.com/maps/search/?api=1&query=49.4384934%2C1.09439032%28H%C3%B4tel%20Rouen%20Alba%29
Parc la Fontaine Enchantée;49.5272855;0.1322766;True;https://www.google.com/maps/search/?api=1&query=49.5272855%2C0.1322766%28Parc%20la%20Fontaine%20Enchant%C3%A9e%29
Grumesnil;49.610218;1.692263;True;https://www.google.com/maps/search/?api=1&query=49.610218%2C1.692263%28Grumesnil%29
Circuit du manoir au Val;49.8245;1.24282;True;https://www.google.com/maps/search/?api=1&query=49.8245%2C1.24282%28Circuit%20du%20manoir%20au%20Val%29
Clos-masure, dis-nous tes secrets !;49.661915;0.7594149;True;https://www.google.com/maps/search/?api=1&query=49.661915%2C0.7594149%28Clos-masure%2C%20dis-nous%20tes%20secrets%20%21%29
Foire à tout;49.8774128;0.9521601;True;https://www.google.com/maps/search/?api=1&query=49.8774128%2C0.9521601%28Foire%20%C3%A0%20tout%29
Visite-démonstration à la Poterie Seinomarine;49.5984796;0.7827459;True;https://www.google.com/maps/search/?api=1&query=49.5984796%2C0.7827459%28Visite-d%C3%A9monstration%20%C3%A0%20la%20Poterie%20Seinomarine%29
Dîner-spectacle : La Fiesta Do Brazil;49.49161;0.11206;True;https://www.google.com/maps/search/?api=1&query=49.49161%2C0.11206%28D%C3%AEner-spectacle%20%3A%20La%20Fiesta%20Do%20Brazil%29
Visite commentée de la Collection de faïences « Vieux Forges »;49.6126371;1.5466693;True;https://www.google.com/maps/search/?api=1&query=49.6126371%2C1.5466693%28Visite%20comment%C3%A9e%20de%20la%20Collection%20de%20fa%C3%AFences%20%C2%AB%20Vieux%20Forges%20%C2%BB%29
Office de Tourisme Intercommunal de Fécamp;49.760916;0.3712345;True;https://www.google.com/maps/search/?api=1&query=49.760916%2C0.3712345%28Office%20de%20Tourisme%20Intercommunal%20de%20F%C3%A9camp%29
[Visite guidée] À la découverte des jardins du château;49.9243623;1.0704652;True;https://www.google.com/maps/search/?api=1&query=49.9243623%2C1.0704652%28%5BVisite%20guid%C3%A9e%5D%20%C3%80%20la%20d%C3%A9couverte%20des%20jardins%20du%20ch%C3%A2teau%29
[Randonnée chantée] Dieppe et le Canada, entre histoire et musique;49.9275109;1.0878759;True;https://www.google.com/maps/search/?api=1&query=49.9275109%2C1.0878759%28%5BRandonn%C3%A9e%20chant%C3%A9e%5D%20Dieppe%20et%20le%20Canada%2C%20entre%20histoire%20et%20musique%29
Auppegard en Fleurs et Plants;49.8488425;0.9284493;True;https://www.google.com/maps/search/?api=1&query=49.8488425%2C0.9284493%28Auppegard%20en%20Fleurs%20et%20Plants%29
Bal de la Victoire à Duclair;49.48225;0.87575;True;https://www.google.com/maps/search/?api=1&query=49.48225%2C0.87575%28Bal%20de%20la%20Victoire%20%C3%A0%20Duclair%29
Le Relais Normand;49.4668877;1.63428603;True;https://www.google.com/maps/search/?api=1&query=49.4668877%2C1.63428603%28Le%20Relais%20Normand%29
Escale Dieppe Gambetta;49.91573;1.07504;True;https://www.google.com/maps/search/?api=1&query=49.91573%2C1.07504%28Escale%20Dieppe%20Gambetta%29
Jardin en Seine;49.5245398;0.7228595;True;https://www.google.com/maps/search/?api=1&query=49.5245398%2C0.7228595%28Jardin%20en%20Seine%29
Domaine de la Reine Blanche - Villa;49.7925916;1.0834345;True;https://www.google.com/maps/search/?api=1&query=49.7925916%2C1.0834345%28Domaine%20de%20la%20Reine%20Blanche%20-%20Villa%29
Tournoi jeunes de Tennis;49.7070069;0.2055978;True;https://www.google.com/maps/search/?api=1&query=49.7070069%2C0.2055978%28Tournoi%20jeunes%20de%20Tennis%29
Marché de producteurs;49.7496455;0.64080745;True;https://www.google.com/maps/search/?api=1&query=49.7496455%2C0.64080745%28March%C3%A9%20de%20producteurs%29
La Réformation;49.745897;1.273468;True;https://www.google.com/maps/search/?api=1&query=49.745897%2C1.273468%28La%20R%C3%A9formation%29
Propos de jardinier : La botanique pour les nuls;49.5037784;0.0942485;True;https://www.google.com/maps/search/?api=1&query=49.5037784%2C0.0942485%28Propos%20de%20jardinier%20%3A%20La%20botanique%20pour%20les%20nuls%29
Poug'Rock Fest;49.8303011;1.0266109;True;https://www.google.com/maps/search/?api=1&query=49.8303011%2C1.0266109%28Poug%27Rock%20Fest%29
Bien-être au musée : Art, sport et relaxation;49.5033248;0.1650465;True;https://www.google.com/maps/search/?api=1&query=49.5033248%2C0.1650465%28Bien-%C3%AAtre%20au%20mus%C3%A9e%20%3A%20Art%2C%20sport%20et%20relaxation%29
Yoga et yoga Nidra en terre d'Accord;49.8595269;0.8459003;True;https://www.google.com/maps/search/?api=1&query=49.8595269%2C0.8459003%28Yoga%20et%20yoga%20Nidra%20en%20terre%20d%27Accord%29
L' Estran;49.7387165;0.3093045;True;https://www.google.com/maps/search/?api=1&query=49.7387165%2C0.3093045%28L%27%20Estran%29
Les Ecuries des Vallées;49.508467;1.389896;True;https://www.google.com/maps/search/?api=1&query=49.508467%2C1.389896%28Les%20Ecuries%20des%20Vall%C3%A9es%29
[Atelier famille] Carterie;49.9197341;1.08554463;True;https://www.google.com/maps/search/?api=1&query=49.9197341%2C1.08554463%28%5BAtelier%20famille%5D%20Carterie%29
Le Mont Rôti à VTT;49.933483;1.58091;True;https://www.google.com/maps/search/?api=1&query=49.933483%2C1.58091%28Le%20Mont%20R%C3%B4ti%20%C3%A0%20VTT%29
Montville en fleurs;49.54375;1.06986;True;https://www.google.com/maps/search/?api=1&query=49.54375%2C1.06986%28Montville%20en%20fleurs%29
Le Quai Sud;49.7634402;0.370215;True;https://www.google.com/maps/search/?api=1&query=49.7634402%2C0.370215%28Le%20Quai%20Sud%29
Activités sportives - jeux de raquettes;49.7864003;0.59079695;True;https://www.google.com/maps/search/?api=1&query=49.7864003%2C0.59079695%28Activit%C3%A9s%20sportives%20-%20jeux%20de%20raquettes%29
Aire de stationnement et de service du Flower Camping La Chênaie;49.7328623;0.32199167;True;https://www.google.com/maps/search/?api=1&query=49.7328623%2C0.32199167%28Aire%20de%20stationnement%20et%20de%20service%20du%20Flower%20Camping%20La%20Ch%C3%AAnaie%29
Une oeuvre, un invité, un café : le départ pour la pêche et l'oeuvre du peintre Emile Louis Minet;49.52469;0.72148;True;https://www.google.com/maps/search/?api=1&query=49.52469%2C0.72148%28Une%20oeuvre%2C%20un%20invit%C3%A9%2C%20un%20caf%C3%A9%20%3A%20le%20d%C3%A9part%20pour%20la%20p%C3%AAche%20et%20l%27oeuvre%20du%20peintre%20Emile%20Louis%20Minet%29
"Théâtre : ""Nous étions la forêt""";49.8637161;0.710195;True;https://www.google.com/maps/search/?api=1&query=49.8637161%2C0.710195%28Th%C3%A9%C3%A2tre%20%3A%20%22Nous%20%C3%A9tions%20la%20for%C3%AAt%22%29
La Basse Vallée de la Durdent;49.845075;0.587848;True;https://www.google.com/maps/search/?api=1&query=49.845075%2C0.587848%28La%20Basse%20Vall%C3%A9e%20de%20la%20Durdent%29
[Thé dansant] Club de l'Amitié d'Offranville;49.8737296;1.0476766;True;https://www.google.com/maps/search/?api=1&query=49.8737296%2C1.0476766%28%5BTh%C3%A9%20dansant%5D%20Club%20de%20l%27Amiti%C3%A9%20d%27Offranville%29
Exposition : Le thermalisme à travers les cartes postales anciennes;49.6077826;1.5322243;True;https://www.google.com/maps/search/?api=1&query=49.6077826%2C1.5322243%28Exposition%20%3A%20Le%20thermalisme%20%C3%A0%20travers%20les%20cartes%20postales%20anciennes%29
[Exposition] Maryvonne Burel et Annie Loue;49.8726358;1.0438192;True;https://www.google.com/maps/search/?api=1&query=49.8726358%2C1.0438192%28%5BExposition%5D%20Maryvonne%20Burel%20et%20Annie%20Loue%29
MENADEL - Chambre Ariel;49.61315;0.75079;True;https://www.google.com/maps/search/?api=1&query=49.61315%2C0.75079%28MENADEL%20-%20Chambre%20Ariel%29
L'écume - Duplex 1er étage;49.7603167;0.3632638;True;https://www.google.com/maps/search/?api=1&query=49.7603167%2C0.3632638%28L%27%C3%A9cume%20-%20Duplex%201er%20%C3%A9tage%29
Chèvrerie de la forêt d'Eu;49.99192;1.45613;True;https://www.google.com/maps/search/?api=1&query=49.99192%2C1.45613%28Ch%C3%A8vrerie%20de%20la%20for%C3%AAt%20d%27Eu%29
Auberge d'Ypreville;49.694784;0.532835;True;https://www.google.com/maps/search/?api=1&query=49.694784%2C0.532835%28Auberge%20d%27Ypreville%29
Téléthon;49.7181466;1.0998027;True;https://www.google.com/maps/search/?api=1&query=49.7181466%2C1.0998027%28T%C3%A9l%C3%A9thon%29
Théâtre : Nous étions la forêt;50.0215515;1.4624048;True;https://www.google.com/maps/search/?api=1&query=50.0215515%2C1.4624048%28Th%C3%A9%C3%A2tre%20%3A%20Nous%20%C3%A9tions%20la%20for%C3%AAt%29
Mcdonald's;49.614139;0.772163;True;https://www.google.com/maps/search/?api=1&query=49.614139%2C0.772163%28Mcdonald%27s%29
Site V1 de Guerville;49.9459166;1.50118232;True;https://www.google.com/maps/search/?api=1&query=49.9459166%2C1.50118232%28Site%20V1%20de%20Guerville%29
La Cave du Salut;49.760787;0.36631099;True;https://www.google.com/maps/search/?api=1&query=49.760787%2C0.36631099%28La%20Cave%20du%20Salut%29
Randonnée pédestre;49.737508;0.971204;True;https://www.google.com/maps/search/?api=1&query=49.737508%2C0.971204%28Randonn%C3%A9e%20p%C3%A9destre%29
Le Val Saint-Etienne à VTT;49.695619;1.243019;True;https://www.google.com/maps/search/?api=1&query=49.695619%2C1.243019%28Le%20Val%20Saint-Etienne%20%C3%A0%20VTT%29
M. GAULANDEAU Henri et Isabelle - Location vue mer;50.061375;1.371215;True;https://www.google.com/maps/search/?api=1&query=50.061375%2C1.371215%28M.%20GAULANDEAU%20Henri%20et%20Isabelle%20-%20Location%20vue%20mer%29
Concert : Danyl;49.5038294;0.12076702;True;https://www.google.com/maps/search/?api=1&query=49.5038294%2C0.12076702%28Concert%20%3A%20Danyl%29
L'oeil et la main - Espace d'expositions d'art;50.04725;1.41889;True;https://www.google.com/maps/search/?api=1&query=50.04725%2C1.41889%28L%27oeil%20et%20la%20main%20-%20Espace%20d%27expositions%20d%27art%29
La grillade;49.4856725;0.46614934;True;https://www.google.com/maps/search/?api=1&query=49.4856725%2C0.46614934%28La%20grillade%29
Le Clos Marin;50.0523904;1.396456;True;https://www.google.com/maps/search/?api=1&query=50.0523904%2C1.396456%28Le%20Clos%20Marin%29
Base Nautique et de Loisirs de Bédanne;49.3231689;1.07249478;True;https://www.google.com/maps/search/?api=1&query=49.3231689%2C1.07249478%28Base%20Nautique%20et%20de%20Loisirs%20de%20B%C3%A9danne%29
Woupi;49.4221636;1.0507747;True;https://www.google.com/maps/search/?api=1&query=49.4221636%2C1.0507747%28Woupi%29
Minute patrimoine : Ces messieurs du café;49.4938304;0.1141793;True;https://www.google.com/maps/search/?api=1&query=49.4938304%2C0.1141793%28Minute%20patrimoine%20%3A%20Ces%20messieurs%20du%20caf%C3%A9%29
Maison de santé pluridisciplinaire La Charmille;49.6899914;0.5028093;True;https://www.google.com/maps/search/?api=1&query=49.6899914%2C0.5028093%28Maison%20de%20sant%C3%A9%20pluridisciplinaire%20La%20Charmille%29
Des dessins animés au Shed !;49.4825612;1.0447739;True;https://www.google.com/maps/search/?api=1&query=49.4825612%2C1.0447739%28Des%20dessins%20anim%C3%A9s%20au%20Shed%20%21%29
La Dame au Chapeau;49.71658;0.24679;True;https://www.google.com/maps/search/?api=1&query=49.71658%2C0.24679%28La%20Dame%20au%20Chapeau%29
Mémoire d'Albâtre, Site du Pont Rouge;49.8554805;0.60982218;True;https://www.google.com/maps/search/?api=1&query=49.8554805%2C0.60982218%28M%C3%A9moire%20d%27Alb%C3%A2tre%2C%20Site%20du%20Pont%20Rouge%29
Chapelle Seigneuriale de l'église Notre-Dame;49.6462396;0.68831956;True;https://www.google.com/maps/search/?api=1&query=49.6462396%2C0.68831956%28Chapelle%20Seigneuriale%20de%20l%27%C3%A9glise%20Notre-Dame%29
Le Petit Gîte d'Angélique;49.4938632;0.63389199;True;https://www.google.com/maps/search/?api=1&query=49.4938632%2C0.63389199%28Le%20Petit%20G%C3%AEte%20d%27Ang%C3%A9lique%29
Gîtes de France® - Ferme de la Houssaye;49.5000472;1.18360556;True;https://www.google.com/maps/search/?api=1&query=49.5000472%2C1.18360556%28G%C3%AEtes%20de%20France%C2%AE%20-%20Ferme%20de%20la%20Houssaye%29
La Lisette;49.708263;0.206797;True;https://www.google.com/maps/search/?api=1&query=49.708263%2C0.206797%28La%20Lisette%29
"Atelier de danse libre ""move your body""";49.8595269;0.8459003;True;https://www.google.com/maps/search/?api=1&query=49.8595269%2C0.8459003%28Atelier%20de%20danse%20libre%20%22move%20your%20body%22%29
NAMONT Béatrice;50.0576587;1.37025059;True;https://www.google.com/maps/search/?api=1&query=50.0576587%2C1.37025059%28NAMONT%20B%C3%A9atrice%29
Les Grands Genêts;49.4634934;1.5142934;True;https://www.google.com/maps/search/?api=1&query=49.4634934%2C1.5142934%28Les%20Grands%20Gen%C3%AAts%29
Le Goulet à VTT;49.78533;1.22861;True;https://www.google.com/maps/search/?api=1&query=49.78533%2C1.22861%28Le%20Goulet%20%C3%A0%20VTT%29
Journées du Patrimoine | Visite guidée - Criel-sur-Mer : Circuit du patrimoine architectural;50.017558;1.3158049;True;https://www.google.com/maps/search/?api=1&query=50.017558%2C1.3158049%28Journ%C3%A9es%20du%20Patrimoine%20%7C%20Visite%20guid%C3%A9e%20-%20Criel-sur-Mer%20%3A%20Circuit%20du%20patrimoine%20architectural%29
Domaine du Grand Daubeuf;49.709956;0.47875799;True;https://www.google.com/maps/search/?api=1&query=49.709956%2C0.47875799%28Domaine%20du%20Grand%20Daubeuf%29
La Plaine du Moulin;49.817234;0.771752;True;https://www.google.com/maps/search/?api=1&query=49.817234%2C0.771752%28La%20Plaine%20du%20Moulin%29
Petite sortie en voilier habitable;49.8673536;0.70996198;True;https://www.google.com/maps/search/?api=1&query=49.8673536%2C0.70996198%28Petite%20sortie%20en%20voilier%20habitable%29
Stage nature : La vie sauvage;49.5314995;0.2577854;True;https://www.google.com/maps/search/?api=1&query=49.5314995%2C0.2577854%28Stage%20nature%20%3A%20La%20vie%20sauvage%29
Exposition à Médiscie - Teddy Gardez, Graphiste Artandbuzz, et Caroline Strande;49.7889728;1.10979406;True;https://www.google.com/maps/search/?api=1&query=49.7889728%2C1.10979406%28Exposition%20%C3%A0%20M%C3%A9discie%20-%20Teddy%20Gardez%2C%20Graphiste%20Artandbuzz%2C%20et%20Caroline%20Strande%29
Gare de Le Houlme;49.510119;1.036864;True;https://www.google.com/maps/search/?api=1&query=49.510119%2C1.036864%28Gare%20de%20Le%20Houlme%29
[Exposition] Guillaume Montier;49.8726358;1.0438192;True;https://www.google.com/maps/search/?api=1&query=49.8726358%2C1.0438192%28%5BExposition%5D%20Guillaume%20Montier%29
Duck House;49.52976;0.77281;True;https://www.google.com/maps/search/?api=1&query=49.52976%2C0.77281%28Duck%20House%29
Sport dans les années 1920 Croquet – initiation au Gateball;49.6138467;1.5359427;True;https://www.google.com/maps/search/?api=1&query=49.6138467%2C1.5359427%28Sport%20dans%20les%20ann%C3%A9es%201920%20Croquet%20%E2%80%93%20initiation%20au%20Gateball%29
La chèvrerie des trois L;49.6859209;0.5573873;True;https://www.google.com/maps/search/?api=1&query=49.6859209%2C0.5573873%28La%20ch%C3%A8vrerie%20des%20trois%20L%29
La VéloCauchoise;49.75772;0.37634;True;https://www.google.com/maps/search/?api=1&query=49.75772%2C0.37634%28La%20V%C3%A9loCauchoise%29
[Visite guidée] Pourville, l’histoire d’une métamorphose;49.896928;1.033522;True;https://www.google.com/maps/search/?api=1&query=49.896928%2C1.033522%28%5BVisite%20guid%C3%A9e%5D%20Pourville%2C%20l%E2%80%99histoire%20d%E2%80%99une%20m%C3%A9tamorphose%29
Musée d'Histoire de la Vie Quotidienne;49.9579443;1.22506881;True;https://www.google.com/maps/search/?api=1&query=49.9579443%2C1.22506881%28Mus%C3%A9e%20d%27Histoire%20de%20la%20Vie%20Quotidienne%29
Le Cercle des pages partagées;49.8257162;0.91212676;True;https://www.google.com/maps/search/?api=1&query=49.8257162%2C0.91212676%28Le%20Cercle%20des%20pages%20partag%C3%A9es%29
Glicool;49.9354684;1.2412635;True;https://www.google.com/maps/search/?api=1&query=49.9354684%2C1.2412635%28Glicool%29
Gare de Motteville;49.6371252;0.8497574;True;https://www.google.com/maps/search/?api=1&query=49.6371252%2C0.8497574%28Gare%20de%20Motteville%29
FRONT DE MER ET FALAISE 317;50.0607804;1.3667727;True;https://www.google.com/maps/search/?api=1&query=50.0607804%2C1.3667727%28FRONT%20DE%20MER%20ET%20FALAISE%20317%29
Le Grand Tour du Trait à VTT;49.4785994;0.86025978;True;https://www.google.com/maps/search/?api=1&query=49.4785994%2C0.86025978%28Le%20Grand%20Tour%20du%20Trait%20%C3%A0%20VTT%29
Concerts : Les Musicales de Normandie 2026;49.4384683;1.123968;True;https://www.google.com/maps/search/?api=1&query=49.4384683%2C1.123968%28Concerts%20%3A%20Les%20Musicales%20de%20Normandie%202026%29
Marais de Fesques;49.790217;1.4778039;True;https://www.google.com/maps/search/?api=1&query=49.790217%2C1.4778039%28Marais%20de%20Fesques%29
Pain bio de la Castorette;49.64836;1.09932;True;https://www.google.com/maps/search/?api=1&query=49.64836%2C1.09932%28Pain%20bio%20de%20la%20Castorette%29
Le Vallon;49.62956;1.34659;True;https://www.google.com/maps/search/?api=1&query=49.62956%2C1.34659%28Le%20Vallon%29
La Ferm'entente;49.4987053;1.3527173;True;https://www.google.com/maps/search/?api=1&query=49.4987053%2C1.3527173%28La%20Ferm%27entente%29
La Porteuse d'Eau;49.880241;1.125068;True;https://www.google.com/maps/search/?api=1&query=49.880241%2C1.125068%28La%20Porteuse%20d%27Eau%29
Saint Valery en Caux : une ville et la mer;49.8689991;0.71079433;True;https://www.google.com/maps/search/?api=1&query=49.8689991%2C0.71079433%28Saint%20Valery%20en%20Caux%20%3A%20une%20ville%20et%20la%20mer%29
"Marché à la ferme ""Les Prés d'Artemare""";49.7680433;0.7305165;True;https://www.google.com/maps/search/?api=1&query=49.7680433%2C0.7305165%28March%C3%A9%20%C3%A0%20la%20ferme%20%22Les%20Pr%C3%A9s%20d%27Artemare%22%29
Les îles de la Seine en paddle au coucher du soleil;49.3890428;1.1252048;True;https://www.google.com/maps/search/?api=1&query=49.3890428%2C1.1252048%28Les%20%C3%AEles%20de%20la%20Seine%20en%20paddle%20au%20coucher%20du%20soleil%29
La Maison d'Yport;49.73931;0.31138;True;https://www.google.com/maps/search/?api=1&query=49.73931%2C0.31138%28La%20Maison%20d%27Yport%29
Exposition : Section peinture du Club des Jeunes;49.828901;0.912495;True;https://www.google.com/maps/search/?api=1&query=49.828901%2C0.912495%28Exposition%20%3A%20Section%20peinture%20du%20Club%20des%20Jeunes%29
"Exposition photo ""Quand le Paysage trompe l'oeil""";49.9000275;0.9213372;True;https://www.google.com/maps/search/?api=1&query=49.9000275%2C0.9213372%28Exposition%20photo%20%22Quand%20le%20Paysage%20trompe%20l%27oeil%22%29
Tiny House Graine d'Insolite;49.7098515;0.9596453;True;https://www.google.com/maps/search/?api=1&query=49.7098515%2C0.9596453%28Tiny%20House%20Graine%20d%27Insolite%29
Téléski nautique au Lac de Caniel - Cours particulier;49.81879;0.63718;True;https://www.google.com/maps/search/?api=1&query=49.81879%2C0.63718%28T%C3%A9l%C3%A9ski%20nautique%20au%20Lac%20de%20Caniel%20-%20Cours%20particulier%29
Au P'tit Spot;49.9045817;0.92371375;True;https://www.google.com/maps/search/?api=1&query=49.9045817%2C0.92371375%28Au%20P%27tit%20Spot%29
"APPARTEMENT ""LA SUITE ISAHORA"" _ LOVE ROOM";50.05129;1.42101;True;https://www.google.com/maps/search/?api=1&query=50.05129%2C1.42101%28APPARTEMENT%20%22LA%20SUITE%20ISAHORA%22%20_%20LOVE%20ROOM%29
Gare d'Yvetot;49.621724;0.750563;True;https://www.google.com/maps/search/?api=1&query=49.621724%2C0.750563%28Gare%20d%27Yvetot%29
[Fiction sonore] Pourquoi n'y a-t-il plus de chats à Veules-les-Roses ?;49.9099115;0.9466468;True;https://www.google.com/maps/search/?api=1&query=49.9099115%2C0.9466468%28%5BFiction%20sonore%5D%20Pourquoi%20n%27y%20a-t-il%20plus%20de%20chats%20%C3%A0%20Veules-les-Roses%20%3F%29
Meublé 37/38 LEVILLAIN;50.0598946;1.3723964;True;https://www.google.com/maps/search/?api=1&query=50.0598946%2C1.3723964%28Meubl%C3%A9%2037/38%20LEVILLAIN%29
Le Marais des Communaux;49.4652453;1.39854538;True;https://www.google.com/maps/search/?api=1&query=49.4652453%2C1.39854538%28Le%20Marais%20des%20Communaux%29
Eglise Saint-Martin;49.53108;0.99238;True;https://www.google.com/maps/search/?api=1&query=49.53108%2C0.99238%28Eglise%20Saint-Martin%29
Visite thématique : Les couleurs de l'automne;49.5037784;0.0942485;True;https://www.google.com/maps/search/?api=1&query=49.5037784%2C0.0942485%28Visite%20th%C3%A9matique%20%3A%20Les%20couleurs%20de%20l%27automne%29
Gare de Montville;49.55138;1.07016;True;https://www.google.com/maps/search/?api=1&query=49.55138%2C1.07016%28Gare%20de%20Montville%29
Défilé et Goûter d'Halloween;49.4820726;1.7465569;True;https://www.google.com/maps/search/?api=1&query=49.4820726%2C1.7465569%28D%C3%A9fil%C3%A9%20et%20Go%C3%BBter%20d%27Halloween%29
Les Chambres du Chat Perché - Chambre Clair de Lune;49.4994931;0.1065582;True;https://www.google.com/maps/search/?api=1&query=49.4994931%2C0.1065582%28Les%20Chambres%20du%20Chat%20Perch%C3%A9%20-%20Chambre%20Clair%20de%20Lune%29
Gîte de l'escargot;49.6301884;0.5563444;True;https://www.google.com/maps/search/?api=1&query=49.6301884%2C0.5563444%28G%C3%AEte%20de%20l%27escargot%29
Circuit touristique de Criel-sur-Mer & Mesnil-Val;50.0242793;1.3088317;True;https://www.google.com/maps/search/?api=1&query=50.0242793%2C1.3088317%28Circuit%20touristique%20de%20Criel-sur-Mer%20%26%20Mesnil-Val%29
Un après-midi à la ferme;49.767861;0.733197;True;https://www.google.com/maps/search/?api=1&query=49.767861%2C0.733197%28Un%20apr%C3%A8s-midi%20%C3%A0%20la%20ferme%29
Les Terres de Marie - Le Hêtre;49.4642873;1.4449219;True;https://www.google.com/maps/search/?api=1&query=49.4642873%2C1.4449219%28Les%20Terres%20de%20Marie%20-%20Le%20H%C3%AAtre%29
Visite Kostik;49.52469;0.72148;True;https://www.google.com/maps/search/?api=1&query=49.52469%2C0.72148%28Visite%20Kostik%29
Rendez-vous aux jardins au sein du parc du château d'Ancretiéville Saint Victor;49.652521;0.970831;True;https://www.google.com/maps/search/?api=1&query=49.652521%2C0.970831%28Rendez-vous%20aux%20jardins%20au%20sein%20du%20parc%20du%20ch%C3%A2teau%20d%27Ancreti%C3%A9ville%20Saint%20Victor%29
Le Grenier de La Mothe - Management par l’orchestre;49.8152013;1.42855611;True;https://www.google.com/maps/search/?api=1&query=49.8152013%2C1.42855611%28Le%20Grenier%20de%20La%20Mothe%20-%20Management%20par%20l%E2%80%99orchestre%29
Musée Saint-Louis;49.619568;0.745472;True;https://www.google.com/maps/search/?api=1&query=49.619568%2C0.745472%28Mus%C3%A9e%20Saint-Louis%29
Descente de la Durdent en kayak ou en paddle;49.8530594;0.6013477;True;https://www.google.com/maps/search/?api=1&query=49.8530594%2C0.6013477%28Descente%20de%20la%20Durdent%20en%20kayak%20ou%20en%20paddle%29
Les Deux Piliers;49.81591;1.02843;True;https://www.google.com/maps/search/?api=1&query=49.81591%2C1.02843%28Les%20Deux%20Piliers%29
Exposition de peinture : Elisabeth Haloo Joye;49.9043513;0.92226363;True;https://www.google.com/maps/search/?api=1&query=49.9043513%2C0.92226363%28Exposition%20de%20peinture%20%3A%20Elisabeth%20Haloo%20Joye%29
Concert : Sclavine;49.7073281;0.2025123;True;https://www.google.com/maps/search/?api=1&query=49.7073281%2C0.2025123%28Concert%20%3A%20Sclavine%29
Gîtes de France® - Gîte du Levant;49.276611;1.050498;True;https://www.google.com/maps/search/?api=1&query=49.276611%2C1.050498%28G%C3%AEtes%20de%20France%C2%AE%20-%20G%C3%AEte%20du%20Levant%29
Sure Hotel by BESTWESTERN Port Jérome Le Havre;49.4929807;0.5601781;True;https://www.google.com/maps/search/?api=1&query=49.4929807%2C0.5601781%28Sure%20Hotel%20by%20BESTWESTERN%20Port%20J%C3%A9rome%20Le%20Havre%29
A l'Orée du Lin;49.68975;0.40097222;True;https://www.google.com/maps/search/?api=1&query=49.68975%2C0.40097222%28A%20l%27Or%C3%A9e%20du%20Lin%29
Gîtes de France® - Le Petit Giteopré;49.65434;1.50162;True;https://www.google.com/maps/search/?api=1&query=49.65434%2C1.50162%28G%C3%AEtes%20de%20France%C2%AE%20-%20Le%20Petit%20Giteopr%C3%A9%29
Visite guidée : Les comices agricoles;49.5258605;0.3619664;True;https://www.google.com/maps/search/?api=1&query=49.5258605%2C0.3619664%28Visite%20guid%C3%A9e%20%3A%20Les%20comices%20agricoles%29
MEDI-CAUX BUS du Pays de Caux;49.6193329;0.7575204;True;https://www.google.com/maps/search/?api=1&query=49.6193329%2C0.7575204%28MEDI-CAUX%20BUS%20du%20Pays%20de%20Caux%29
Le Mont Lévêque à VTT;49.6455855;0.69005043;True;https://www.google.com/maps/search/?api=1&query=49.6455855%2C0.69005043%28Le%20Mont%20L%C3%A9v%C3%AAque%20%C3%A0%20VTT%29
Le Genetey;49.44691;0.96476;True;https://www.google.com/maps/search/?api=1&query=49.44691%2C0.96476%28Le%20Genetey%29
[Foire à tout] En intérieur;49.8691573;1.0491045;True;https://www.google.com/maps/search/?api=1&query=49.8691573%2C1.0491045%28%5BFoire%20%C3%A0%20tout%5D%20En%20int%C3%A9rieur%29
L'Escale du Gros-Horloge;49.44179;1.09115;True;https://www.google.com/maps/search/?api=1&query=49.44179%2C1.09115%28L%27Escale%20du%20Gros-Horloge%29
Appartement Superbe Vue Mer et Funiculaire;50.0607804;1.3667727;True;https://www.google.com/maps/search/?api=1&query=50.0607804%2C1.3667727%28Appartement%20Superbe%20Vue%20Mer%20et%20Funiculaire%29
Gîtes de France® - François et Auguste;49.49205;0.1143283;True;https://www.google.com/maps/search/?api=1&query=49.49205%2C0.1143283%28G%C3%AEtes%20de%20France%C2%AE%20-%20Fran%C3%A7ois%20et%20Auguste%29
Sortie nature :  Contes au fil de l'eau;49.5181785;0.2045656;True;https://www.google.com/maps/search/?api=1&query=49.5181785%2C0.2045656%28Sortie%20nature%20%3A%20%20Contes%20au%20fil%20de%20l%27eau%29
Les Toits de Dieppe;49.9258071;1.07614956;True;https://www.google.com/maps/search/?api=1&query=49.9258071%2C1.07614956%28Les%20Toits%20de%20Dieppe%29
"Gîte ""le Bâtiment""";49.696025;0.694458;True;https://www.google.com/maps/search/?api=1&query=49.696025%2C0.694458%28G%C3%AEte%20%22le%20B%C3%A2timent%22%29
[Escape Game] Mémoires de la fôret;49.860918;1.083522;True;https://www.google.com/maps/search/?api=1&query=49.860918%2C1.083522%28%5BEscape%20Game%5D%20M%C3%A9moires%20de%20la%20f%C3%B4ret%29
La Terre est Ronde pour Ceux qui S'aiment;49.7468258;0.4506207;True;https://www.google.com/maps/search/?api=1&query=49.7468258%2C0.4506207%28La%20Terre%20est%20Ronde%20pour%20Ceux%20qui%20S%27aiment%29
Epicerie d'Yport;49.7386861;0.3127606;True;https://www.google.com/maps/search/?api=1&query=49.7386861%2C0.3127606%28Epicerie%20d%27Yport%29
Aire de pique-nique de Martainville-Epreville;49.4589235;1.29345145;True;https://www.google.com/maps/search/?api=1&query=49.4589235%2C1.29345145%28Aire%20de%20pique-nique%20de%20Martainville-Epreville%29
L'Écurie et l'Étable;49.6818803;0.1762494;True;https://www.google.com/maps/search/?api=1&query=49.6818803%2C0.1762494%28L%27%C3%89curie%20et%20l%27%C3%89table%29
Visite : Les Cordiers au temps des bains de mer;50.0620054;1.36779197;True;https://www.google.com/maps/search/?api=1&query=50.0620054%2C1.36779197%28Visite%20%3A%20Les%20Cordiers%20au%20temps%20des%20bains%20de%20mer%29
Les chemins de forrières;49.862342;0.848781;True;https://www.google.com/maps/search/?api=1&query=49.862342%2C0.848781%28Les%20chemins%20de%20forri%C3%A8res%29
Hôtel La Villa 10;49.7074957;0.20683059;True;https://www.google.com/maps/search/?api=1&query=49.7074957%2C0.20683059%28H%C3%B4tel%20La%20Villa%2010%29
La Villa Castel;49.9242282;1.07124743;True;https://www.google.com/maps/search/?api=1&query=49.9242282%2C1.07124743%28La%20Villa%20Castel%29
Centre de santé de Fontaine le Dun;49.8117736;0.8501106;True;https://www.google.com/maps/search/?api=1&query=49.8117736%2C0.8501106%28Centre%20de%20sant%C3%A9%20de%20Fontaine%20le%20Dun%29
Parcours nature de la Basse Vallée de la Durdent;49.8522973;0.60170964;True;https://www.google.com/maps/search/?api=1&query=49.8522973%2C0.60170964%28Parcours%20nature%20de%20la%20Basse%20Vall%C3%A9e%20de%20la%20Durdent%29
Atelier petit miroir rond;49.59953;1.11099;True;https://www.google.com/maps/search/?api=1&query=49.59953%2C1.11099%28Atelier%20petit%20miroir%20rond%29
Gîtes de France® - Chez Mireille;50.057041;1.3852458;True;https://www.google.com/maps/search/?api=1&query=50.057041%2C1.3852458%28G%C3%AEtes%20de%20France%C2%AE%20-%20Chez%20Mireille%29
Cours de catamarans - Centre Nautique du Tréport;50.062604;1.37807467;True;https://www.google.com/maps/search/?api=1&query=50.062604%2C1.37807467%28Cours%20de%20catamarans%20-%20Centre%20Nautique%20du%20Tr%C3%A9port%29
Forêt domaniale d'Arques;49.880241;1.125068;True;https://www.google.com/maps/search/?api=1&query=49.880241%2C1.125068%28For%C3%AAt%20domaniale%20d%27Arques%29
Visite de Ville « Ferro et Aqua »;49.6128418;1.545757;True;https://www.google.com/maps/search/?api=1&query=49.6128418%2C1.545757%28Visite%20de%20Ville%20%C2%AB%20Ferro%20et%20Aqua%20%C2%BB%29
Marché traditionnel;49.8742736;0.79798405;True;https://www.google.com/maps/search/?api=1&query=49.8742736%2C0.79798405%28March%C3%A9%20traditionnel%29
La Saurisserie;50.059701;1.378606;True;https://www.google.com/maps/search/?api=1&query=50.059701%2C1.378606%28La%20Saurisserie%29
La soirée de l'année ! Ebb'Flow en concert;49.7780328;0.9787456;True;https://www.google.com/maps/search/?api=1&query=49.7780328%2C0.9787456%28La%20soir%C3%A9e%20de%20l%27ann%C3%A9e%20%21%20Ebb%27Flow%20en%20concert%29
L'Espace Beauté de Sophie Coiffure;49.72118;0.7841;True;https://www.google.com/maps/search/?api=1&query=49.72118%2C0.7841%28L%27Espace%20Beaut%C3%A9%20de%20Sophie%20Coiffure%29
Le Séchoir à Lin;49.65436;0.76753;True;https://www.google.com/maps/search/?api=1&query=49.65436%2C0.76753%28Le%20S%C3%A9choir%20%C3%A0%20Lin%29
Auberge de la Forêt;49.901243;1.230756;True;https://www.google.com/maps/search/?api=1&query=49.901243%2C1.230756%28Auberge%20de%20la%20For%C3%AAt%29
Hôtel Restaurant le Scie-Gare;49.716787;1.099374;True;https://www.google.com/maps/search/?api=1&query=49.716787%2C1.099374%28H%C3%B4tel%20Restaurant%20le%20Scie-Gare%29
Camping Les Prés de la Mer;49.8258576;0.63470183;True;https://www.google.com/maps/search/?api=1&query=49.8258576%2C0.63470183%28Camping%20Les%20Pr%C3%A9s%20de%20la%20Mer%29
Résidence du bord de mer n°5;50.056881;1.3732369;True;https://www.google.com/maps/search/?api=1&query=50.056881%2C1.3732369%28R%C3%A9sidence%20du%20bord%20de%20mer%20n%C2%B05%29
La Charreterie - Studio;49.5019976;0.3816444;True;https://www.google.com/maps/search/?api=1&query=49.5019976%2C0.3816444%28La%20Charreterie%20-%20Studio%29
Mme ROSSIGNOL Geneviève;50.05908;1.38143;True;https://www.google.com/maps/search/?api=1&query=50.05908%2C1.38143%28Mme%20ROSSIGNOL%20Genevi%C3%A8ve%29
Gîtes de France® - Le Colombier;49.8047145;1.6485089;True;https://www.google.com/maps/search/?api=1&query=49.8047145%2C1.6485089%28G%C3%AEtes%20de%20France%C2%AE%20-%20Le%20Colombier%29
Gîtes de France® - Le Clos des Fleurs;49.3994444;1.18;True;https://www.google.com/maps/search/?api=1&query=49.3994444%2C1.18%28G%C3%AEtes%20de%20France%C2%AE%20-%20Le%20Clos%20des%20Fleurs%29
Les Magiciens de La Nuit;49.7428946;0.5145614;True;https://www.google.com/maps/search/?api=1&query=49.7428946%2C0.5145614%28Les%20Magiciens%20de%20La%20Nuit%29
Foyer de la culture et des loisirs de Clères;49.59978;1.10853;True;https://www.google.com/maps/search/?api=1&query=49.59978%2C1.10853%28Foyer%20de%20la%20culture%20et%20des%20loisirs%20de%20Cl%C3%A8res%29
Gîtes de France® - La Villa;49.596;0.5188;True;https://www.google.com/maps/search/?api=1&query=49.596%2C0.5188%28G%C3%AEtes%20de%20France%C2%AE%20-%20La%20Villa%29
Exposition - Enfants et alcools : normes, éducation, prévention;49.4414;1.10167;True;https://www.google.com/maps/search/?api=1&query=49.4414%2C1.10167%28Exposition%20-%20Enfants%20et%20alcools%20%3A%20normes%2C%20%C3%A9ducation%2C%20pr%C3%A9vention%29
Aire de stationnement et de service Camping Les Falaises de Toussaint;49.7411096;0.41656066;True;https://www.google.com/maps/search/?api=1&query=49.7411096%2C0.41656066%28Aire%20de%20stationnement%20et%20de%20service%20Camping%20Les%20Falaises%20de%20Toussaint%29
Bistrot des Barrières;49.9262917;1.0796228;True;https://www.google.com/maps/search/?api=1&query=49.9262917%2C1.0796228%28Bistrot%20des%20Barri%C3%A8res%29
"Visites commentées ""Mémoires d'Albâtre""";49.854111;0.610423;True;https://www.google.com/maps/search/?api=1&query=49.854111%2C0.610423%28Visites%20comment%C3%A9es%20%22M%C3%A9moires%20d%27Alb%C3%A2tre%22%29
Huitres de Veules-les-Roses;49.90505;0.92525;True;https://www.google.com/maps/search/?api=1&query=49.90505%2C0.92525%28Huitres%20de%20Veules-les-Roses%29
Visite de la Chapelle de Villedieu et du village de Haucourt;49.635882;1.649142;True;https://www.google.com/maps/search/?api=1&query=49.635882%2C1.649142%28Visite%20de%20la%20Chapelle%20de%20Villedieu%20et%20du%20village%20de%20Haucourt%29
Gîtes de France® - La Grange au Pré des Marées;49.8100189;0.911409;True;https://www.google.com/maps/search/?api=1&query=49.8100189%2C0.911409%28G%C3%AEtes%20de%20France%C2%AE%20-%20La%20Grange%20au%20Pr%C3%A9%20des%20Mar%C3%A9es%29
Ferme pédagogique d'Épaville;49.537794;0.197159;True;https://www.google.com/maps/search/?api=1&query=49.537794%2C0.197159%28Ferme%20p%C3%A9dagogique%20d%27%C3%89paville%29
L'Abel maison de MADAM Paris;49.57087;0.32707;True;https://www.google.com/maps/search/?api=1&query=49.57087%2C0.32707%28L%27Abel%20maison%20de%20MADAM%20Paris%29
Sortie nature avec Plantes et Fruits Brayons;49.671387;1.516699;True;https://www.google.com/maps/search/?api=1&query=49.671387%2C1.516699%28Sortie%20nature%20avec%20Plantes%20et%20Fruits%20Brayons%29
L'idylle;49.9021397;0.92183094;True;https://www.google.com/maps/search/?api=1&query=49.9021397%2C0.92183094%28L%27idylle%29
Gîtes de France® - La Lampotte 1;49.6963888;0.27461111;True;https://www.google.com/maps/search/?api=1&query=49.6963888%2C0.27461111%28G%C3%AEtes%20de%20France%C2%AE%20-%20La%20Lampotte%201%29
Grandes voix d’Afrique - Lauréats du concours international de chant;49.4446789;1.1001902;True;https://www.google.com/maps/search/?api=1&query=49.4446789%2C1.1001902%28Grandes%20voix%20d%E2%80%99Afrique%20-%20Laur%C3%A9ats%20du%20concours%20international%20de%20chant%29
Yvetot fête la nature – Marché aux végétaux;49.61798;0.75402;True;https://www.google.com/maps/search/?api=1&query=49.61798%2C0.75402%28Yvetot%20f%C3%AAte%20la%20nature%20%E2%80%93%20March%C3%A9%20aux%20v%C3%A9g%C3%A9taux%29
Exposition : la vie dans les années 1920;49.6136629;1.5463089;True;https://www.google.com/maps/search/?api=1&query=49.6136629%2C1.5463089%28Exposition%20%3A%20la%20vie%20dans%20les%20ann%C3%A9es%201920%29
Le verger du Mesnil;49.9694292;1.44647429;True;https://www.google.com/maps/search/?api=1&query=49.9694292%2C1.44647429%28Le%20verger%20du%20Mesnil%29
Gîte de Laure;49.8960868;0.91773242;True;https://www.google.com/maps/search/?api=1&query=49.8960868%2C0.91773242%28G%C3%AEte%20de%20Laure%29
Concert : Helios 10 Ans - Acte 1;49.500977;0.1435657;True;https://www.google.com/maps/search/?api=1&query=49.500977%2C0.1435657%28Concert%20%3A%20Helios%2010%20Ans%20-%20Acte%201%29
[Cérémonies] Libération d'Offranville;49.8705808;1.0493288;True;https://www.google.com/maps/search/?api=1&query=49.8705808%2C1.0493288%28%5BC%C3%A9r%C3%A9monies%5D%20Lib%C3%A9ration%20d%27Offranville%29
Hôtel Sofhôtel;49.6147965;1.5524037;True;https://www.google.com/maps/search/?api=1&query=49.6147965%2C1.5524037%28H%C3%B4tel%20Sofh%C3%B4tel%29
Week-end « Pause en couple » à l’écrin de l’Andelle;49.4752524;1.4361581;True;https://www.google.com/maps/search/?api=1&query=49.4752524%2C1.4361581%28Week-end%20%C2%AB%20Pause%20en%20couple%20%C2%BB%20%C3%A0%20l%E2%80%99%C3%A9crin%20de%20l%E2%80%99Andelle%29
Séance de yoga;49.8633661;0.711919;True;https://www.google.com/maps/search/?api=1&query=49.8633661%2C0.711919%28S%C3%A9ance%20de%20yoga%29
Maison Caillet;49.7443614;0.4929134;True;https://www.google.com/maps/search/?api=1&query=49.7443614%2C0.4929134%28Maison%20Caillet%29
L'Effet des Fées;49.698386;1.124486;True;https://www.google.com/maps/search/?api=1&query=49.698386%2C1.124486%28L%27Effet%20des%20F%C3%A9es%29
Centre aquatique E'Caux Bulles;49.6184576;0.77409197;True;https://www.google.com/maps/search/?api=1&query=49.6184576%2C0.77409197%28Centre%20aquatique%20E%27Caux%20Bulles%29
Balade à cheval islandais;49.5381;1.40541;True;https://www.google.com/maps/search/?api=1&query=49.5381%2C1.40541%28Balade%20%C3%A0%20cheval%20islandais%29
Les Gîtes de Marjorie - La Maison de Jeanne;49.930093;1.083319;True;https://www.google.com/maps/search/?api=1&query=49.930093%2C1.083319%28Les%20G%C3%AEtes%20de%20Marjorie%20-%20La%20Maison%20de%20Jeanne%29
Cinéma du Casino;50.0629542;1.36869675;True;https://www.google.com/maps/search/?api=1&query=50.0629542%2C1.36869675%28Cin%C3%A9ma%20du%20Casino%29
Tapisserie Literie Hoinville-Boulan;49.8285156;0.91026776;True;https://www.google.com/maps/search/?api=1&query=49.8285156%2C0.91026776%28Tapisserie%20Literie%20Hoinville-Boulan%29
Port de Plaisance;49.8686517;0.71095715;True;https://www.google.com/maps/search/?api=1&query=49.8686517%2C0.71095715%28Port%20de%20Plaisance%29
Découverte nature en famille - Le cyanotype;49.59786;1.11045;True;https://www.google.com/maps/search/?api=1&query=49.59786%2C1.11045%28D%C3%A9couverte%20nature%20en%20famille%20-%20Le%20cyanotype%29
Bois-Guilbert Élégance, by Art Automobile;49.5379528;1.4047237;True;https://www.google.com/maps/search/?api=1&query=49.5379528%2C1.4047237%28Bois-Guilbert%20%C3%89l%C3%A9gance%2C%20by%20Art%20Automobile%29
Le Caillebourg 1;49.6454722;0.88166389;True;https://www.google.com/maps/search/?api=1&query=49.6454722%2C0.88166389%28Le%20Caillebourg%201%29
La Bergerie;49.48875;1.33347222;True;https://www.google.com/maps/search/?api=1&query=49.48875%2C1.33347222%28La%20Bergerie%29
L'Ô2 Mer;49.9261066;1.0713272;True;https://www.google.com/maps/search/?api=1&query=49.9261066%2C1.0713272%28L%27%C3%942%20Mer%29
Musée des Sapeurs-Pompiers de France;49.5474339;1.07568366;True;https://www.google.com/maps/search/?api=1&query=49.5474339%2C1.07568366%28Mus%C3%A9e%20des%20Sapeurs-Pompiers%20de%20France%29
Gîte de la Vallée;49.60428;0.98636;True;https://www.google.com/maps/search/?api=1&query=49.60428%2C0.98636%28G%C3%AEte%20de%20la%20Vall%C3%A9e%29
Ferme des Chataigniers;49.510557;1.323185;True;https://www.google.com/maps/search/?api=1&query=49.510557%2C1.323185%28Ferme%20des%20Chataigniers%29
Visite naturaliste des falaises : Falaise d'Aval ou d'Amont;49.70432;0.211098;True;https://www.google.com/maps/search/?api=1&query=49.70432%2C0.211098%28Visite%20naturaliste%20des%20falaises%20%3A%20Falaise%20d%27Aval%20ou%20d%27Amont%29
Marché d'Aumale;49.7700106;1.7519636;True;https://www.google.com/maps/search/?api=1&query=49.7700106%2C1.7519636%28March%C3%A9%20d%27Aumale%29
"Théâtre : ""Journal de mer""";49.826211;0.71507763;True;https://www.google.com/maps/search/?api=1&query=49.826211%2C0.71507763%28Th%C3%A9%C3%A2tre%20%3A%20%22Journal%20de%20mer%22%29
Festival “ Ça bouge dans mon quartier ” à Blangy-sur-Bresle;49.9324129;1.6300539;True;https://www.google.com/maps/search/?api=1&query=49.9324129%2C1.6300539%28Festival%20%E2%80%9C%20%C3%87a%20bouge%20dans%20mon%20quartier%20%E2%80%9D%20%C3%A0%20Blangy-sur-Bresle%29
L’Arlésienne - Georges Bizet;49.4395264;1.0894296;True;https://www.google.com/maps/search/?api=1&query=49.4395264%2C1.0894296%28L%E2%80%99Arl%C3%A9sienne%20-%20Georges%20Bizet%29
Vacances de printemps créatives avec Manufactory;49.4892907;0.108098;True;https://www.google.com/maps/search/?api=1&query=49.4892907%2C0.108098%28Vacances%20de%20printemps%20cr%C3%A9atives%20avec%20Manufactory%29
Au balcon de la falaise;50.0570043;1.3730692;True;https://www.google.com/maps/search/?api=1&query=50.0570043%2C1.3730692%28Au%20balcon%20de%20la%20falaise%29
La Petite Salamandre;49.7083361;0.2035266;True;https://www.google.com/maps/search/?api=1&query=49.7083361%2C0.2035266%28La%20Petite%20Salamandre%29
Wonder Women - L’Arpeggiata;49.4446789;1.1001902;True;https://www.google.com/maps/search/?api=1&query=49.4446789%2C1.1001902%28Wonder%20Women%20-%20L%E2%80%99Arpeggiata%29
[Atelier] Fabrication de lumignons;49.9163852;1.070615;True;https://www.google.com/maps/search/?api=1&query=49.9163852%2C1.070615%28%5BAtelier%5D%20Fabrication%20de%20lumignons%29
Visite naturaliste Natterra : Marée de découverte en famille à Etretat;49.7072999;0.1935822;True;https://www.google.com/maps/search/?api=1&query=49.7072999%2C0.1935822%28Visite%20naturaliste%20Natterra%20%3A%20Mar%C3%A9e%20de%20d%C3%A9couverte%20en%20famille%20%C3%A0%20Etretat%29
La Bichotterie;49.595295;0.728116;True;https://www.google.com/maps/search/?api=1&query=49.595295%2C0.728116%28La%20Bichotterie%29
La Vallée de Valmont;49.74068;0.51743699;True;https://www.google.com/maps/search/?api=1&query=49.74068%2C0.51743699%28La%20Vall%C3%A9e%20de%20Valmont%29
Bourvil à bicyclette;49.7214097;0.7834738;True;https://www.google.com/maps/search/?api=1&query=49.7214097%2C0.7834738%28Bourvil%20%C3%A0%20bicyclette%29
Restaurant du Clos Rouen - La Vaupalière;49.48162;1.01325;True;https://www.google.com/maps/search/?api=1&query=49.48162%2C1.01325%28Restaurant%20du%20Clos%20Rouen%20-%20La%20Vaupali%C3%A8re%29
Le Mont de Beaussault;49.6873068;1.4984572;True;https://www.google.com/maps/search/?api=1&query=49.6873068%2C1.4984572%28Le%20Mont%20de%20Beaussault%29
Aire de pique-nique de Bosc-le-Hard;49.625549;1.175255;True;https://www.google.com/maps/search/?api=1&query=49.625549%2C1.175255%28Aire%20de%20pique-nique%20de%20Bosc-le-Hard%29
Au pied des vagues;50.061317;1.368546;True;https://www.google.com/maps/search/?api=1&query=50.061317%2C1.368546%28Au%20pied%20des%20vagues%29
"Catamaran 14"" - Stage";49.8770242;0.7972283;True;https://www.google.com/maps/search/?api=1&query=49.8770242%2C0.7972283%28Catamaran%2014%22%20-%20Stage%29
Téléski nautique - Base de Loisirs de Caniel;49.8011932;0.6312391;True;https://www.google.com/maps/search/?api=1&query=49.8011932%2C0.6312391%28T%C3%A9l%C3%A9ski%20nautique%20-%20Base%20de%20Loisirs%20de%20Caniel%29
Villa Jack'Line - RDC;49.8700184;0.7126278;True;https://www.google.com/maps/search/?api=1&query=49.8700184%2C0.7126278%28Villa%20Jack%27Line%20-%20RDC%29
Camping Etennemare;49.8587158;0.70289968;True;https://www.google.com/maps/search/?api=1&query=49.8587158%2C0.70289968%28Camping%20Etennemare%29
Flab' des Vents;50.060728;1.366953;True;https://www.google.com/maps/search/?api=1&query=50.060728%2C1.366953%28Flab%27%20des%20Vents%29
Hôtel Ibis Budget Petit-Quevilly;49.4254486;1.05517589;True;https://www.google.com/maps/search/?api=1&query=49.4254486%2C1.05517589%28H%C3%B4tel%20Ibis%20Budget%20Petit-Quevilly%29
La Maison du Rebours;49.59151;1.68911;True;https://www.google.com/maps/search/?api=1&query=49.59151%2C1.68911%28La%20Maison%20du%20Rebours%29
Chez M. Calentier;49.57352;0.47937;True;https://www.google.com/maps/search/?api=1&query=49.57352%2C0.47937%28Chez%20M.%20Calentier%29
Théâtre : Victor Hugo, un géant dans un siècle;49.5033248;0.1650465;True;https://www.google.com/maps/search/?api=1&query=49.5033248%2C0.1650465%28Th%C3%A9%C3%A2tre%20%3A%20Victor%20Hugo%2C%20un%20g%C3%A9ant%20dans%20un%20si%C3%A8cle%29
Gîte Peintres Impressionnistes Normandie;49.6559253;0.2419778;True;https://www.google.com/maps/search/?api=1&query=49.6559253%2C0.2419778%28G%C3%AEte%20Peintres%20Impressionnistes%20Normandie%29
L'échoppe l'Atelier Des Marées;50.0163;1.31729;True;https://www.google.com/maps/search/?api=1&query=50.0163%2C1.31729%28L%27%C3%A9choppe%20l%27Atelier%20Des%20Mar%C3%A9es%29
Le Denver;49.49214;0.10679;True;https://www.google.com/maps/search/?api=1&query=49.49214%2C0.10679%28Le%20Denver%29
Concours de Pêche en mer;49.9053409;0.9262351;True;https://www.google.com/maps/search/?api=1&query=49.9053409%2C0.9262351%28Concours%20de%20P%C3%AAche%20en%20mer%29
Mme Catherine Langaney;49.7576874;0.36749887;True;https://www.google.com/maps/search/?api=1&query=49.7576874%2C0.36749887%28Mme%20Catherine%20Langaney%29
L’histoire d’Yvetot à travers les noms de ses rues;49.6173244;0.7549866;True;https://www.google.com/maps/search/?api=1&query=49.6173244%2C0.7549866%28L%E2%80%99histoire%20d%E2%80%99Yvetot%20%C3%A0%20travers%20les%20noms%20de%20ses%20rues%29
Humour : Thomas Marty;49.4881755;0.1300304;True;https://www.google.com/maps/search/?api=1&query=49.4881755%2C0.1300304%28Humour%20%3A%20Thomas%20Marty%29
À la découverte de Bondeville et Colleville;49.77239;0.46148;True;https://www.google.com/maps/search/?api=1&query=49.77239%2C0.46148%28%C3%80%20la%20d%C3%A9couverte%20de%20Bondeville%20et%20Colleville%29
Forêt de Jumièges;49.4318565;0.81783516;True;https://www.google.com/maps/search/?api=1&query=49.4318565%2C0.81783516%28For%C3%AAt%20de%20Jumi%C3%A8ges%29
Les Brisants;49.9036284;0.92052869;True;https://www.google.com/maps/search/?api=1&query=49.9036284%2C0.92052869%28Les%20Brisants%29
La Sirène - Restaurant;49.7393039;0.3094304;True;https://www.google.com/maps/search/?api=1&query=49.7393039%2C0.3094304%28La%20Sir%C3%A8ne%20-%20Restaurant%29
Visite commentée de la Collection de faïences « Vieux Forges »;49.6126371;1.5466693;True;https://www.google.com/maps/search/?api=1&query=49.6126371%2C1.5466693%28Visite%20comment%C3%A9e%20de%20la%20Collection%20de%20fa%C3%AFences%20%C2%AB%20Vieux%20Forges%20%C2%BB%29
Rendez-vous aux jardins;49.4469844;0.9647736;True;https://www.google.com/maps/search/?api=1&query=49.4469844%2C0.9647736%28Rendez-vous%20aux%20jardins%29
Jardin-clos du Manoir du Fay;49.623361;0.757497;True;https://www.google.com/maps/search/?api=1&query=49.623361%2C0.757497%28Jardin-clos%20du%20Manoir%20du%20Fay%29
Visite thématique : Les secrets gravés de l'abbaye;49.5033248;0.1650465;True;https://www.google.com/maps/search/?api=1&query=49.5033248%2C0.1650465%28Visite%20th%C3%A9matique%20%3A%20Les%20secrets%20grav%C3%A9s%20de%20l%27abbaye%29
Valleuse de Senneville-sur-Fécamp;49.7827359;0.41876521;True;https://www.google.com/maps/search/?api=1&query=49.7827359%2C0.41876521%28Valleuse%20de%20Senneville-sur-F%C3%A9camp%29
Point Location Nautisme;49.761595;0.36313234;True;https://www.google.com/maps/search/?api=1&query=49.761595%2C0.36313234%28Point%20Location%20Nautisme%29
Château d'Ouville l'Abbaye;49.694255;0.864014;True;https://www.google.com/maps/search/?api=1&query=49.694255%2C0.864014%28Ch%C3%A2teau%20d%27Ouville%20l%27Abbaye%29
Atelier : gravure à emporter;49.5033248;0.1650465;True;https://www.google.com/maps/search/?api=1&query=49.5033248%2C0.1650465%28Atelier%20%3A%20gravure%20%C3%A0%20emporter%29
Réouverture du Jardin Agapanthe;49.65267;1.189455;True;https://www.google.com/maps/search/?api=1&query=49.65267%2C1.189455%28R%C3%A9ouverture%20du%20Jardin%20Agapanthe%29
Le Pavillon du Bosc aux Moines;49.7200082;0.8601035;True;https://www.google.com/maps/search/?api=1&query=49.7200082%2C0.8601035%28Le%20Pavillon%20du%20Bosc%20aux%20Moines%29
Gîtes de France® - Le Grand Catillon;49.5536111;0.97194444;True;https://www.google.com/maps/search/?api=1&query=49.5536111%2C0.97194444%28G%C3%AEtes%20de%20France%C2%AE%20-%20Le%20Grand%20Catillon%29
Découverte du Marais de Longueil;49.882934;0.9543739;True;https://www.google.com/maps/search/?api=1&query=49.882934%2C0.9543739%28D%C3%A9couverte%20du%20Marais%20de%20Longueil%29
Visite guidée : L'USST 488;49.4866618;0.12472596;True;https://www.google.com/maps/search/?api=1&query=49.4866618%2C0.12472596%28Visite%20guid%C3%A9e%20%3A%20L%27USST%20488%29
Rallye du Patrimoine;49.5253848;0.76594699;True;https://www.google.com/maps/search/?api=1&query=49.5253848%2C0.76594699%28Rallye%20du%20Patrimoine%29
Marché traditionnel;49.7871911;0.63861211;True;https://www.google.com/maps/search/?api=1&query=49.7871911%2C0.63861211%28March%C3%A9%20traditionnel%29
La Régissière;49.47843;0.67961;True;https://www.google.com/maps/search/?api=1&query=49.47843%2C0.67961%28La%20R%C3%A9gissi%C3%A8re%29
Maison de Santé pluridisciplinaire Les Carmes;49.4424311;1.0963744;True;https://www.google.com/maps/search/?api=1&query=49.4424311%2C1.0963744%28Maison%20de%20Sant%C3%A9%20pluridisciplinaire%20Les%20Carmes%29
Vestiges du Château Gauthier Giffard;49.7926303;1.11481275;True;https://www.google.com/maps/search/?api=1&query=49.7926303%2C1.11481275%28Vestiges%20du%20Ch%C3%A2teau%20Gauthier%20Giffard%29
Biclou à [H]istoires en balade gourmande autour du Tortillard;49.7042745;0.9624587;True;https://www.google.com/maps/search/?api=1&query=49.7042745%2C0.9624587%28Biclou%20%C3%A0%20%5BH%5Distoires%20en%20balade%20gourmande%20autour%20du%20Tortillard%29
Gîtes de France® - Gîte du Valnaye;49.4030888;0.94839167;True;https://www.google.com/maps/search/?api=1&query=49.4030888%2C0.94839167%28G%C3%AEtes%20de%20France%C2%AE%20-%20G%C3%AEte%20du%20Valnaye%29
Villa quai du Tréport;50.0595934;1.3797546;True;https://www.google.com/maps/search/?api=1&query=50.0595934%2C1.3797546%28Villa%20quai%20du%20Tr%C3%A9port%29
Le Bistrot de la Pucelle;49.44205;1.0889;True;https://www.google.com/maps/search/?api=1&query=49.44205%2C1.0889%28Le%20Bistrot%20de%20la%20Pucelle%29
Brasserie Saint Joseph - Boutique;49.4797623;0.15020758;True;https://www.google.com/maps/search/?api=1&query=49.4797623%2C0.15020758%28Brasserie%20Saint%20Joseph%20-%20Boutique%29
Gîtes de France® - Le Catteville;49.8254194;1.06948333;True;https://www.google.com/maps/search/?api=1&query=49.8254194%2C1.06948333%28G%C3%AEtes%20de%20France%C2%AE%20-%20Le%20Catteville%29
L'ancienne forge, chambres d'hôtes;49.5685943;0.72367903;True;https://www.google.com/maps/search/?api=1&query=49.5685943%2C0.72367903%28L%27ancienne%20forge%2C%20chambres%20d%27h%C3%B4tes%29
Journées archéologiques régionales de Normandie 2026;49.44045;1.09594;True;https://www.google.com/maps/search/?api=1&query=49.44045%2C1.09594%28Journ%C3%A9es%20arch%C3%A9ologiques%20r%C3%A9gionales%20de%20Normandie%202026%29
Cours d'équitation en petit comité;49.5381;1.40541;True;https://www.google.com/maps/search/?api=1&query=49.5381%2C1.40541%28Cours%20d%27%C3%A9quitation%20en%20petit%20comit%C3%A9%29
[Sortie Nature] Falaises vivantes à Dieppe;49.924977;1.066356;True;https://www.google.com/maps/search/?api=1&query=49.924977%2C1.066356%28%5BSortie%20Nature%5D%20Falaises%20vivantes%20%C3%A0%20Dieppe%29
Parc du chateau de Merval;49.50575;1.61006;True;https://www.google.com/maps/search/?api=1&query=49.50575%2C1.61006%28Parc%20du%20chateau%20de%20Merval%29
La Paysagerie;49.6310598;0.77376793;True;https://www.google.com/maps/search/?api=1&query=49.6310598%2C0.77376793%28La%20Paysagerie%29
Concours de pétanque;49.5131415;1.6963887;True;https://www.google.com/maps/search/?api=1&query=49.5131415%2C1.6963887%28Concours%20de%20p%C3%A9tanque%29
Entre Varenne et Scie;49.7922009;1.11041394;True;https://www.google.com/maps/search/?api=1&query=49.7922009%2C1.11041394%28Entre%20Varenne%20et%20Scie%29
la Ferme des Trois Portes;49.8285252;0.92116565;True;https://www.google.com/maps/search/?api=1&query=49.8285252%2C0.92116565%28la%20Ferme%20des%20Trois%20Portes%29
Palais Ducal;49.7550929;0.38008898;True;https://www.google.com/maps/search/?api=1&query=49.7550929%2C0.38008898%28Palais%20Ducal%29
Boucle VTT de Saint-Jean-de-Folleville;49.523113;0.50582564;True;https://www.google.com/maps/search/?api=1&query=49.523113%2C0.50582564%28Boucle%20VTT%20de%20Saint-Jean-de-Folleville%29
La belle histoire;50.0585112;1.4180218;True;https://www.google.com/maps/search/?api=1&query=50.0585112%2C1.4180218%28La%20belle%20histoire%29
MuséoSeine, musée de la Seine normande;49.5244887;0.72220095;True;https://www.google.com/maps/search/?api=1&query=49.5244887%2C0.72220095%28Mus%C3%A9oSeine%2C%20mus%C3%A9e%20de%20la%20Seine%20normande%29
Descente de la Durdent en kayak ou en paddle;49.8530594;0.6013477;True;https://www.google.com/maps/search/?api=1&query=49.8530594%2C0.6013477%28Descente%20de%20la%20Durdent%20en%20kayak%20ou%20en%20paddle%29
Centre équestre des Droops;49.515309;0.601878;True;https://www.google.com/maps/search/?api=1&query=49.515309%2C0.601878%28Centre%20%C3%A9questre%20des%20Droops%29
Savon D'ICI;49.620863;0.786154;True;https://www.google.com/maps/search/?api=1&query=49.620863%2C0.786154%28Savon%20D%27ICI%29
LU6D;49.4391646;1.09775039;True;https://www.google.com/maps/search/?api=1&query=49.4391646%2C1.09775039%28LU6D%29
Gîtes de France® - Le Clos du Bailly;50.0198888;1.44802778;True;https://www.google.com/maps/search/?api=1&query=50.0198888%2C1.44802778%28G%C3%AEtes%20de%20France%C2%AE%20-%20Le%20Clos%20du%20Bailly%29
PR La Forêt de Jumièges;49.4523022;0.83231211;True;https://www.google.com/maps/search/?api=1&query=49.4523022%2C0.83231211%28PR%20La%20For%C3%AAt%20de%20Jumi%C3%A8ges%29
Atelier Yin Yoga;49.8722937;0.79993201;True;https://www.google.com/maps/search/?api=1&query=49.8722937%2C0.79993201%28Atelier%20Yin%20Yoga%29
La Fumisterie - dîners spectacles;49.75363;0.39674;True;https://www.google.com/maps/search/?api=1&query=49.75363%2C0.39674%28La%20Fumisterie%20-%20d%C3%AEners%20spectacles%29
La surprise;50.05974;1.37425;True;https://www.google.com/maps/search/?api=1&query=50.05974%2C1.37425%28La%20surprise%29
Église de Vatierville;49.77725;1.50071;True;https://www.google.com/maps/search/?api=1&query=49.77725%2C1.50071%28%C3%89glise%20de%20Vatierville%29
Boutique de la Maison de la Rando et du Trail;49.52481;0.72982;True;https://www.google.com/maps/search/?api=1&query=49.52481%2C0.72982%28Boutique%20de%20la%20Maison%20de%20la%20Rando%20et%20du%20Trail%29
La Maisonnette;50.0301414;1.3858976;True;https://www.google.com/maps/search/?api=1&query=50.0301414%2C1.3858976%28La%20Maisonnette%29
Chez Annie et Claude PIZZAGALLI;49.526223;0.721958;True;https://www.google.com/maps/search/?api=1&query=49.526223%2C0.721958%28Chez%20Annie%20et%20Claude%20PIZZAGALLI%29
Visite thématique : Architecture romane, architecture gothique;49.5033248;0.1650465;True;https://www.google.com/maps/search/?api=1&query=49.5033248%2C0.1650465%28Visite%20th%C3%A9matique%20%3A%20Architecture%20romane%2C%20architecture%20gothique%29
Gîte L'Air du Large;49.5625819;0.1014357;True;https://www.google.com/maps/search/?api=1&query=49.5625819%2C0.1014357%28G%C3%AEte%20L%27Air%20du%20Large%29
Exposition : Pietra, une ville rêvée;49.4939958;0.1085678;True;https://www.google.com/maps/search/?api=1&query=49.4939958%2C0.1085678%28Exposition%20%3A%20Pietra%2C%20une%20ville%20r%C3%AAv%C3%A9e%29
Visite commentée de l’église Saint Eloi;49.6124451;1.5426182;True;https://www.google.com/maps/search/?api=1&query=49.6124451%2C1.5426182%28Visite%20comment%C3%A9e%20de%20l%E2%80%99%C3%A9glise%20Saint%20Eloi%29
Château d'Herbouville;49.8488374;0.8715614;True;https://www.google.com/maps/search/?api=1&query=49.8488374%2C0.8715614%28Ch%C3%A2teau%20d%27Herbouville%29
Villa The Treport;50.0597;1.3745;True;https://www.google.com/maps/search/?api=1&query=50.0597%2C1.3745%28Villa%20The%20Treport%29
The People Bar;49.4931351;0.1306799;True;https://www.google.com/maps/search/?api=1&query=49.4931351%2C0.1306799%28The%20People%20Bar%29
Aire de pique-nique de Montville;49.545788;1.074472;True;https://www.google.com/maps/search/?api=1&query=49.545788%2C1.074472%28Aire%20de%20pique-nique%20de%20Montville%29
L'Hirondelle;49.52538;0.73096;True;https://www.google.com/maps/search/?api=1&query=49.52538%2C0.73096%28L%27Hirondelle%29
Balade commentée de Serqueux;49.6314152;1.538251;True;https://www.google.com/maps/search/?api=1&query=49.6314152%2C1.538251%28Balade%20comment%C3%A9e%20de%20Serqueux%29
Exposition : Famille Gaignoux - Transmission et métamorphoses;49.5447941;0.19272699;True;https://www.google.com/maps/search/?api=1&query=49.5447941%2C0.19272699%28Exposition%20%3A%20Famille%20Gaignoux%20-%20Transmission%20et%20m%C3%A9tamorphoses%29
A.R.C.A.D.E. Bowling;49.4972241;0.5745784;True;https://www.google.com/maps/search/?api=1&query=49.4972241%2C0.5745784%28A.R.C.A.D.E.%20Bowling%29
[Atelier] Couture;49.92952;1.0840965;True;https://www.google.com/maps/search/?api=1&query=49.92952%2C1.0840965%28%5BAtelier%5D%20Couture%29
Exposition : La vie quotidienne pendant la Seconde Guerre Mondiale;49.7458794;1.2735764;True;https://www.google.com/maps/search/?api=1&query=49.7458794%2C1.2735764%28Exposition%20%3A%20La%20vie%20quotidienne%20pendant%20la%20Seconde%20Guerre%20Mondiale%29
Moulin de l'Arbalète;49.6887367;1.1031901;True;https://www.google.com/maps/search/?api=1&query=49.6887367%2C1.1031901%28Moulin%20de%20l%27Arbal%C3%A8te%29
Glaces Ortiz;49.49601;0.0964;True;https://www.google.com/maps/search/?api=1&query=49.49601%2C0.0964%28Glaces%20Ortiz%29
